{
  "type": "FeatureCollection",
  "features": [
    {
      "type": "Feature",
      "geometry": {
        "type": "Point",
        "coordinates": [
          133.899368,
          34.669495
        ]
      },
      "properties": {
        "city_code": "33101",
        "town_code": "1",
        "pref_name": "岡山県",
        "city_name": "岡山市北区",
        "town_name": "葵町",
        "address": "岡山県岡山市北区葵町"
      }
    },
    {
      "type": "Feature",
      "geometry": {
        "type": "Point",
        "coordinates": [
          133.846466,
          34.767479
        ]
      },
      "properties": {
        "city_code": "33101",
        "town_code": "10",
        "pref_name": "岡山県",
        "city_name": "岡山市北区",
        "town_name": "石妻",
        "address": "岡山県岡山市北区石妻"
      }
    },
    {
      "type": "Feature",
      "geometry": {
        "type": "Point",
        "coordinates": [
          133.869003,
          34.655266
        ]
      },
      "properties": {
        "city_code": "33101",
        "town_code": "100",
        "pref_name": "岡山県",
        "city_name": "岡山市北区",
        "town_name": "白石西新町",
        "address": "岡山県岡山市北区白石西新町"
      }
    },
    {
      "type": "Feature",
      "geometry": {
        "type": "Point",
        "coordinates": [
          133.874649,
          34.656773
        ]
      },
      "properties": {
        "city_code": "33101",
        "town_code": "101",
        "pref_name": "岡山県",
        "city_name": "岡山市北区",
        "town_name": "白石東新町",
        "address": "岡山県岡山市北区白石東新町"
      }
    },
    {
      "type": "Feature",
      "geometry": {
        "type": "Point",
        "coordinates": [
          133.80159,
          34.67614
        ]
      },
      "properties": {
        "city_code": "33101",
        "town_code": "102",
        "pref_name": "岡山県",
        "city_name": "岡山市北区",
        "town_name": "新庄上",
        "address": "岡山県岡山市北区新庄上"
      }
    },
    {
      "type": "Feature",
      "geometry": {
        "type": "Point",
        "coordinates": [
          133.80545,
          34.672001
        ]
      },
      "properties": {
        "city_code": "33101",
        "town_code": "103",
        "pref_name": "岡山県",
        "city_name": "岡山市北区",
        "town_name": "新庄下",
        "address": "岡山県岡山市北区新庄下"
      }
    },
    {
      "type": "Feature",
      "geometry": {
        "type": "Point",
        "coordinates": [
          133.926559,
          34.649639
        ]
      },
      "properties": {
        "city_code": "33101",
        "town_code": "104",
        "pref_name": "岡山県",
        "city_name": "岡山市北区",
        "town_name": "新道",
        "address": "岡山県岡山市北区新道"
      }
    },
    {
      "type": "Feature",
      "geometry": {
        "type": "Point",
        "coordinates": [
          133.909348,
          34.655491
        ]
      },
      "properties": {
        "city_code": "33101",
        "town_code": "105",
        "pref_name": "岡山県",
        "city_name": "岡山市北区",
        "town_name": "新屋敷町一丁目",
        "address": "岡山県岡山市北区新屋敷町一丁目"
      }
    },
    {
      "type": "Feature",
      "geometry": {
        "type": "Point",
        "coordinates": [
          133.894623,
          34.748886
        ]
      },
      "properties": {
        "city_code": "33101",
        "town_code": "106",
        "pref_name": "岡山県",
        "city_name": "岡山市北区",
        "town_name": "菅野",
        "address": "岡山県岡山市北区菅野"
      }
    },
    {
      "type": "Feature",
      "geometry": {
        "type": "Point",
        "coordinates": [
          133.830399,
          34.752647
        ]
      },
      "properties": {
        "city_code": "33101",
        "town_code": "107",
        "pref_name": "岡山県",
        "city_name": "岡山市北区",
        "town_name": "杉谷",
        "address": "岡山県岡山市北区杉谷"
      }
    },
    {
      "type": "Feature",
      "geometry": {
        "type": "Point",
        "coordinates": [
          133.924408,
          34.652206
        ]
      },
      "properties": {
        "city_code": "33101",
        "town_code": "108",
        "pref_name": "岡山県",
        "city_name": "岡山市北区",
        "town_name": "清輝橋一丁目",
        "address": "岡山県岡山市北区清輝橋一丁目"
      }
    },
    {
      "type": "Feature",
      "geometry": {
        "type": "Point",
        "coordinates": [
          133.926788,
          34.652737
        ]
      },
      "properties": {
        "city_code": "33101",
        "town_code": "109",
        "pref_name": "岡山県",
        "city_name": "岡山市北区",
        "town_name": "清輝本町",
        "address": "岡山県岡山市北区清輝本町"
      }
    },
    {
      "type": "Feature",
      "geometry": {
        "type": "Point",
        "coordinates": [
          133.905029,
          34.680817
        ]
      },
      "properties": {
        "city_code": "33101",
        "town_code": "11",
        "pref_name": "岡山県",
        "city_name": "岡山市北区",
        "town_name": "伊島北町",
        "address": "岡山県岡山市北区伊島北町"
      }
    },
    {
      "type": "Feature",
      "geometry": {
        "type": "Point",
        "coordinates": [
          133.918396,
          34.673073
        ]
      },
      "properties": {
        "city_code": "33101",
        "town_code": "110",
        "pref_name": "岡山県",
        "city_name": "岡山市北区",
        "town_name": "清心町",
        "address": "岡山県岡山市北区清心町"
      }
    },
    {
      "type": "Feature",
      "geometry": {
        "type": "Point",
        "coordinates": [
          133.929428,
          34.649868
        ]
      },
      "properties": {
        "city_code": "33101",
        "town_code": "111",
        "pref_name": "岡山県",
        "city_name": "岡山市北区",
        "town_name": "船頭町",
        "address": "岡山県岡山市北区船頭町"
      }
    },
    {
      "type": "Feature",
      "geometry": {
        "type": "Point",
        "coordinates": [
          133.832275,
          34.667995
        ]
      },
      "properties": {
        "city_code": "33101",
        "town_code": "112",
        "pref_name": "岡山県",
        "city_name": "岡山市北区",
        "town_name": "惣爪",
        "address": "岡山県岡山市北区惣爪"
      }
    },
    {
      "type": "Feature",
      "geometry": {
        "type": "Point",
        "coordinates": [
          133.887405,
          34.66666
        ]
      },
      "properties": {
        "city_code": "33101",
        "town_code": "113",
        "pref_name": "岡山県",
        "city_name": "岡山市北区",
        "town_name": "大安寺中町",
        "address": "岡山県岡山市北区大安寺中町"
      }
    },
    {
      "type": "Feature",
      "geometry": {
        "type": "Point",
        "coordinates": [
          133.883987,
          34.665726
        ]
      },
      "properties": {
        "city_code": "33101",
        "town_code": "114",
        "pref_name": "岡山県",
        "city_name": "岡山市北区",
        "town_name": "大安寺西町",
        "address": "岡山県岡山市北区大安寺西町"
      }
    },
    {
      "type": "Feature",
      "geometry": {
        "type": "Point",
        "coordinates": [
          133.890961,
          34.667362
        ]
      },
      "properties": {
        "city_code": "33101",
        "town_code": "115",
        "pref_name": "岡山県",
        "city_name": "岡山市北区",
        "town_name": "大安寺東町",
        "address": "岡山県岡山市北区大安寺東町"
      }
    },
    {
      "type": "Feature",
      "geometry": {
        "type": "Point",
        "coordinates": [
          133.891983,
          34.660664
        ]
      },
      "properties": {
        "city_code": "33101",
        "town_code": "116",
        "pref_name": "岡山県",
        "city_name": "岡山市北区",
        "town_name": "大安寺南町一丁目",
        "address": "岡山県岡山市北区大安寺南町一丁目"
      }
    },
    {
      "type": "Feature",
      "geometry": {
        "type": "Point",
        "coordinates": [
          133.921371,
          34.652603
        ]
      },
      "properties": {
        "city_code": "33101",
        "town_code": "117",
        "pref_name": "岡山県",
        "city_name": "岡山市北区",
        "town_name": "大学町",
        "address": "岡山県岡山市北区大学町"
      }
    },
    {
      "type": "Feature",
      "geometry": {
        "type": "Point",
        "coordinates": [
          133.920685,
          34.655113
        ]
      },
      "properties": {
        "city_code": "33101",
        "town_code": "118",
        "pref_name": "岡山県",
        "city_name": "岡山市北区",
        "town_name": "大供一丁目",
        "address": "岡山県岡山市北区大供一丁目"
      }
    },
    {
      "type": "Feature",
      "geometry": {
        "type": "Point",
        "coordinates": [
          133.914597,
          34.65239
        ]
      },
      "properties": {
        "city_code": "33101",
        "town_code": "119",
        "pref_name": "岡山県",
        "city_name": "岡山市北区",
        "town_name": "大供表町",
        "address": "岡山県岡山市北区大供表町"
      }
    },
    {
      "type": "Feature",
      "geometry": {
        "type": "Point",
        "coordinates": [
          133.911087,
          34.676453
        ]
      },
      "properties": {
        "city_code": "33101",
        "town_code": "12",
        "pref_name": "岡山県",
        "city_name": "岡山市北区",
        "town_name": "伊島町一丁目",
        "address": "岡山県岡山市北区伊島町一丁目"
      }
    },
    {
      "type": "Feature",
      "geometry": {
        "type": "Point",
        "coordinates": [
          133.911926,
          34.653046
        ]
      },
      "properties": {
        "city_code": "33101",
        "town_code": "120",
        "pref_name": "岡山県",
        "city_name": "岡山市北区",
        "town_name": "大供本町",
        "address": "岡山県岡山市北区大供本町"
      }
    },
    {
      "type": "Feature",
      "geometry": {
        "type": "Point",
        "coordinates": [
          133.805252,
          34.68869
        ]
      },
      "properties": {
        "city_code": "33101",
        "town_code": "121",
        "pref_name": "岡山県",
        "city_name": "岡山市北区",
        "town_name": "高塚",
        "address": "岡山県岡山市北区高塚"
      }
    },
    {
      "type": "Feature",
      "geometry": {
        "type": "Point",
        "coordinates": [
          133.925781,
          34.742844
        ]
      },
      "properties": {
        "city_code": "33101",
        "town_code": "122",
        "pref_name": "岡山県",
        "city_name": "岡山市北区",
        "town_name": "高野",
        "address": "岡山県岡山市北区高野"
      }
    },
    {
      "type": "Feature",
      "geometry": {
        "type": "Point",
        "coordinates": [
          133.823517,
          34.69067
        ]
      },
      "properties": {
        "city_code": "33101",
        "town_code": "123",
        "pref_name": "岡山県",
        "city_name": "岡山市北区",
        "town_name": "高松",
        "address": "岡山県岡山市北区高松"
      }
    },
    {
      "type": "Feature",
      "geometry": {
        "type": "Point",
        "coordinates": [
          133.835983,
          34.708836
        ]
      },
      "properties": {
        "city_code": "33101",
        "town_code": "124",
        "pref_name": "岡山県",
        "city_name": "岡山市北区",
        "town_name": "高松稲荷",
        "address": "岡山県岡山市北区高松稲荷"
      }
    },
    {
      "type": "Feature",
      "geometry": {
        "type": "Point",
        "coordinates": [
          133.795517,
          34.696594
        ]
      },
      "properties": {
        "city_code": "33101",
        "town_code": "125",
        "pref_name": "岡山県",
        "city_name": "岡山市北区",
        "town_name": "高松田中",
        "address": "岡山県岡山市北区高松田中"
      }
    },
    {
      "type": "Feature",
      "geometry": {
        "type": "Point",
        "coordinates": [
          133.822311,
          34.684437
        ]
      },
      "properties": {
        "city_code": "33101",
        "town_code": "126",
        "pref_name": "岡山県",
        "city_name": "岡山市北区",
        "town_name": "高松原古才",
        "address": "岡山県岡山市北区高松原古才"
      }
    },
    {
      "type": "Feature",
      "geometry": {
        "type": "Point",
        "coordinates": [
          133.897141,
          34.661007
        ]
      },
      "properties": {
        "city_code": "33101",
        "town_code": "127",
        "pref_name": "岡山県",
        "city_name": "岡山市北区",
        "town_name": "高柳西町",
        "address": "岡山県岡山市北区高柳西町"
      }
    },
    {
      "type": "Feature",
      "geometry": {
        "type": "Point",
        "coordinates": [
          133.903061,
          34.661194
        ]
      },
      "properties": {
        "city_code": "33101",
        "town_code": "128",
        "pref_name": "岡山県",
        "city_name": "岡山市北区",
        "town_name": "高柳東町",
        "address": "岡山県岡山市北区高柳東町"
      }
    },
    {
      "type": "Feature",
      "geometry": {
        "type": "Point",
        "coordinates": [
          133.901199,
          34.847984
        ]
      },
      "properties": {
        "city_code": "33101",
        "town_code": "129",
        "pref_name": "岡山県",
        "city_name": "岡山市北区",
        "town_name": "建部町市場",
        "address": "岡山県岡山市北区建部町市場"
      }
    },
    {
      "type": "Feature",
      "geometry": {
        "type": "Point",
        "coordinates": [
          133.931854,
          34.669441
        ]
      },
      "properties": {
        "city_code": "33101",
        "town_code": "13",
        "pref_name": "岡山県",
        "city_name": "岡山市北区",
        "town_name": "出石町一丁目",
        "address": "岡山県岡山市北区出石町一丁目"
      }
    },
    {
      "type": "Feature",
      "geometry": {
        "type": "Point",
        "coordinates": [
          133.91983,
          34.861671
        ]
      },
      "properties": {
        "city_code": "33101",
        "town_code": "130",
        "pref_name": "岡山県",
        "city_name": "岡山市北区",
        "town_name": "建部町大田",
        "address": "岡山県岡山市北区建部町大田"
      }
    },
    {
      "type": "Feature",
      "geometry": {
        "type": "Point",
        "coordinates": [
          133.941086,
          34.83371
        ]
      },
      "properties": {
        "city_code": "33101",
        "town_code": "131",
        "pref_name": "岡山県",
        "city_name": "岡山市北区",
        "town_name": "建部町小倉",
        "address": "岡山県岡山市北区建部町小倉"
      }
    },
    {
      "type": "Feature",
      "geometry": {
        "type": "Point",
        "coordinates": [
          133.901688,
          34.895073
        ]
      },
      "properties": {
        "city_code": "33101",
        "town_code": "132",
        "pref_name": "岡山県",
        "city_name": "岡山市北区",
        "town_name": "建部町川口",
        "address": "岡山県岡山市北区建部町川口"
      }
    },
    {
      "type": "Feature",
      "geometry": {
        "type": "Point",
        "coordinates": [
          133.877579,
          34.846573
        ]
      },
      "properties": {
        "city_code": "33101",
        "town_code": "133",
        "pref_name": "岡山県",
        "city_name": "岡山市北区",
        "town_name": "建部町桜",
        "address": "岡山県岡山市北区建部町桜"
      }
    },
    {
      "type": "Feature",
      "geometry": {
        "type": "Point",
        "coordinates": [
          133.869537,
          34.884708
        ]
      },
      "properties": {
        "city_code": "33101",
        "town_code": "135",
        "pref_name": "岡山県",
        "city_name": "岡山市北区",
        "town_name": "建部町品田",
        "address": "岡山県岡山市北区建部町品田"
      }
    },
    {
      "type": "Feature",
      "geometry": {
        "type": "Point",
        "coordinates": [
          133.923431,
          34.887951
        ]
      },
      "properties": {
        "city_code": "33101",
        "town_code": "136",
        "pref_name": "岡山県",
        "city_name": "岡山市北区",
        "town_name": "建部町下神目",
        "address": "岡山県岡山市北区建部町下神目"
      }
    },
    {
      "type": "Feature",
      "geometry": {
        "type": "Point",
        "coordinates": [
          133.903183,
          34.861336
        ]
      },
      "properties": {
        "city_code": "33101",
        "town_code": "137",
        "pref_name": "岡山県",
        "city_name": "岡山市北区",
        "town_name": "建部町建部上",
        "address": "岡山県岡山市北区建部町建部上"
      }
    },
    {
      "type": "Feature",
      "geometry": {
        "type": "Point",
        "coordinates": [
          133.858612,
          34.862736
        ]
      },
      "properties": {
        "city_code": "33101",
        "town_code": "138",
        "pref_name": "岡山県",
        "city_name": "岡山市北区",
        "town_name": "建部町田地子",
        "address": "岡山県岡山市北区建部町田地子"
      }
    },
    {
      "type": "Feature",
      "geometry": {
        "type": "Point",
        "coordinates": [
          133.916931,
          34.678619
        ]
      },
      "properties": {
        "city_code": "33101",
        "town_code": "14",
        "pref_name": "岡山県",
        "city_name": "岡山市北区",
        "town_name": "いずみ町",
        "address": "岡山県岡山市北区いずみ町"
      }
    },
    {
      "type": "Feature",
      "geometry": {
        "type": "Point",
        "coordinates": [
          133.886353,
          34.935974
        ]
      },
      "properties": {
        "city_code": "33101",
        "town_code": "140",
        "pref_name": "岡山県",
        "city_name": "岡山市北区",
        "town_name": "建部町角石畝",
        "address": "岡山県岡山市北区建部町角石畝"
      }
    },
    {
      "type": "Feature",
      "geometry": {
        "type": "Point",
        "coordinates": [
          133.891037,
          34.857586
        ]
      },
      "properties": {
        "city_code": "33101",
        "town_code": "142",
        "pref_name": "岡山県",
        "city_name": "岡山市北区",
        "town_name": "建部町富沢",
        "address": "岡山県岡山市北区建部町富沢"
      }
    },
    {
      "type": "Feature",
      "geometry": {
        "type": "Point",
        "coordinates": [
          133.88681,
          34.837212
        ]
      },
      "properties": {
        "city_code": "33101",
        "town_code": "143",
        "pref_name": "岡山県",
        "city_name": "岡山市北区",
        "town_name": "建部町中田",
        "address": "岡山県岡山市北区建部町中田"
      }
    },
    {
      "type": "Feature",
      "geometry": {
        "type": "Point",
        "coordinates": [
          133.895386,
          34.832474
        ]
      },
      "properties": {
        "city_code": "33101",
        "town_code": "144",
        "pref_name": "岡山県",
        "city_name": "岡山市北区",
        "town_name": "建部町西原",
        "address": "岡山県岡山市北区建部町西原"
      }
    },
    {
      "type": "Feature",
      "geometry": {
        "type": "Point",
        "coordinates": [
          133.943893,
          34.852001
        ]
      },
      "properties": {
        "city_code": "33101",
        "town_code": "145",
        "pref_name": "岡山県",
        "city_name": "岡山市北区",
        "town_name": "建部町土師方",
        "address": "岡山県岡山市北区建部町土師方"
      }
    },
    {
      "type": "Feature",
      "geometry": {
        "type": "Point",
        "coordinates": [
          133.91153,
          34.870262
        ]
      },
      "properties": {
        "city_code": "33101",
        "town_code": "146",
        "pref_name": "岡山県",
        "city_name": "岡山市北区",
        "town_name": "建部町福渡",
        "address": "岡山県岡山市北区建部町福渡"
      }
    },
    {
      "type": "Feature",
      "geometry": {
        "type": "Point",
        "coordinates": [
          133.912003,
          34.880554
        ]
      },
      "properties": {
        "city_code": "33101",
        "town_code": "147",
        "pref_name": "岡山県",
        "city_name": "岡山市北区",
        "town_name": "建部町豊楽寺",
        "address": "岡山県岡山市北区建部町豊楽寺"
      }
    },
    {
      "type": "Feature",
      "geometry": {
        "type": "Point",
        "coordinates": [
          133.906219,
          34.853157
        ]
      },
      "properties": {
        "city_code": "33101",
        "town_code": "148",
        "pref_name": "岡山県",
        "city_name": "岡山市北区",
        "town_name": "建部町宮地",
        "address": "岡山県岡山市北区建部町宮地"
      }
    },
    {
      "type": "Feature",
      "geometry": {
        "type": "Point",
        "coordinates": [
          133.916183,
          34.842953
        ]
      },
      "properties": {
        "city_code": "33101",
        "town_code": "149",
        "pref_name": "岡山県",
        "city_name": "岡山市北区",
        "town_name": "建部町吉田",
        "address": "岡山県岡山市北区建部町吉田"
      }
    },
    {
      "type": "Feature",
      "geometry": {
        "type": "Point",
        "coordinates": [
          133.866272,
          34.676502
        ]
      },
      "properties": {
        "city_code": "33101",
        "town_code": "15",
        "pref_name": "岡山県",
        "city_name": "岡山市北区",
        "town_name": "一宮",
        "address": "岡山県岡山市北区一宮"
      }
    },
    {
      "type": "Feature",
      "geometry": {
        "type": "Point",
        "coordinates": [
          133.834946,
          34.686008
        ]
      },
      "properties": {
        "city_code": "33101",
        "town_code": "151",
        "pref_name": "岡山県",
        "city_name": "岡山市北区",
        "town_name": "立田",
        "address": "岡山県岡山市北区立田"
      }
    },
    {
      "type": "Feature",
      "geometry": {
        "type": "Point",
        "coordinates": [
          133.888138,
          34.640381
        ]
      },
      "properties": {
        "city_code": "33101",
        "town_code": "152",
        "pref_name": "岡山県",
        "city_name": "岡山市北区",
        "town_name": "辰巳",
        "address": "岡山県岡山市北区辰巳"
      }
    },
    {
      "type": "Feature",
      "geometry": {
        "type": "Point",
        "coordinates": [
          133.881363,
          34.638927
        ]
      },
      "properties": {
        "city_code": "33101",
        "town_code": "153",
        "pref_name": "岡山県",
        "city_name": "岡山市北区",
        "town_name": "田中",
        "address": "岡山県岡山市北区田中"
      }
    },
    {
      "type": "Feature",
      "geometry": {
        "type": "Point",
        "coordinates": [
          133.900452,
          34.676296
        ]
      },
      "properties": {
        "city_code": "33101",
        "town_code": "154",
        "pref_name": "岡山県",
        "city_name": "岡山市北区",
        "town_name": "谷万成一丁目",
        "address": "岡山県岡山市北区谷万成一丁目"
      }
    },
    {
      "type": "Feature",
      "geometry": {
        "type": "Point",
        "coordinates": [
          133.879013,
          34.738766
        ]
      },
      "properties": {
        "city_code": "33101",
        "town_code": "155",
        "pref_name": "岡山県",
        "city_name": "岡山市北区",
        "town_name": "田原",
        "address": "岡山県岡山市北区田原"
      }
    },
    {
      "type": "Feature",
      "geometry": {
        "type": "Point",
        "coordinates": [
          133.964279,
          34.719627
        ]
      },
      "properties": {
        "city_code": "33101",
        "town_code": "156",
        "pref_name": "岡山県",
        "city_name": "岡山市北区",
        "town_name": "玉柏",
        "address": "岡山県岡山市北区玉柏"
      }
    },
    {
      "type": "Feature",
      "geometry": {
        "type": "Point",
        "coordinates": [
          133.895767,
          34.7136
        ]
      },
      "properties": {
        "city_code": "33101",
        "town_code": "157",
        "pref_name": "岡山県",
        "city_name": "岡山市北区",
        "town_name": "田益",
        "address": "岡山県岡山市北区田益"
      }
    },
    {
      "type": "Feature",
      "geometry": {
        "type": "Point",
        "coordinates": [
          133.924545,
          34.661438
        ]
      },
      "properties": {
        "city_code": "33101",
        "town_code": "158",
        "pref_name": "岡山県",
        "city_name": "岡山市北区",
        "town_name": "田町一丁目",
        "address": "岡山県岡山市北区田町一丁目"
      }
    },
    {
      "type": "Feature",
      "geometry": {
        "type": "Point",
        "coordinates": [
          133.924606,
          34.657379
        ]
      },
      "properties": {
        "city_code": "33101",
        "town_code": "159",
        "pref_name": "岡山県",
        "city_name": "岡山市北区",
        "town_name": "中央町",
        "address": "岡山県岡山市北区中央町"
      }
    },
    {
      "type": "Feature",
      "geometry": {
        "type": "Point",
        "coordinates": [
          133.87355,
          34.683506
        ]
      },
      "properties": {
        "city_code": "33101",
        "town_code": "16",
        "pref_name": "岡山県",
        "city_name": "岡山市北区",
        "town_name": "一宮山崎",
        "address": "岡山県岡山市北区一宮山崎"
      }
    },
    {
      "type": "Feature",
      "geometry": {
        "type": "Point",
        "coordinates": [
          133.909073,
          34.670132
        ]
      },
      "properties": {
        "city_code": "33101",
        "town_code": "160",
        "pref_name": "岡山県",
        "city_name": "岡山市北区",
        "town_name": "津倉町一丁目",
        "address": "岡山県岡山市北区津倉町一丁目"
      }
    },
    {
      "type": "Feature",
      "geometry": {
        "type": "Point",
        "coordinates": [
          133.921112,
          34.694794
        ]
      },
      "properties": {
        "city_code": "33101",
        "town_code": "161",
        "pref_name": "岡山県",
        "city_name": "岡山市北区",
        "town_name": "津島",
        "address": "岡山県岡山市北区津島"
      }
    },
    {
      "type": "Feature",
      "geometry": {
        "type": "Point",
        "coordinates": [
          133.900375,
          34.680653
        ]
      },
      "properties": {
        "city_code": "33101",
        "town_code": "162",
        "pref_name": "岡山県",
        "city_name": "岡山市北区",
        "town_name": "津島京町一丁目",
        "address": "岡山県岡山市北区津島京町一丁目"
      }
    },
    {
      "type": "Feature",
      "geometry": {
        "type": "Point",
        "coordinates": [
          133.912766,
          34.68626
        ]
      },
      "properties": {
        "city_code": "33101",
        "town_code": "163",
        "pref_name": "岡山県",
        "city_name": "岡山市北区",
        "town_name": "津島桑の木町",
        "address": "岡山県岡山市北区津島桑の木町"
      }
    },
    {
      "type": "Feature",
      "geometry": {
        "type": "Point",
        "coordinates": [
          133.901871,
          34.68721
        ]
      },
      "properties": {
        "city_code": "33101",
        "town_code": "164",
        "pref_name": "岡山県",
        "city_name": "岡山市北区",
        "town_name": "津島笹が瀬",
        "address": "岡山県岡山市北区津島笹が瀬"
      }
    },
    {
      "type": "Feature",
      "geometry": {
        "type": "Point",
        "coordinates": [
          133.917114,
          34.685631
        ]
      },
      "properties": {
        "city_code": "33101",
        "town_code": "165",
        "pref_name": "岡山県",
        "city_name": "岡山市北区",
        "town_name": "津島中一丁目",
        "address": "岡山県岡山市北区津島中一丁目"
      }
    },
    {
      "type": "Feature",
      "geometry": {
        "type": "Point",
        "coordinates": [
          133.91835,
          34.68298
        ]
      },
      "properties": {
        "city_code": "33101",
        "town_code": "166",
        "pref_name": "岡山県",
        "city_name": "岡山市北区",
        "town_name": "津島新野一丁目",
        "address": "岡山県岡山市北区津島新野一丁目"
      }
    },
    {
      "type": "Feature",
      "geometry": {
        "type": "Point",
        "coordinates": [
          133.904968,
          34.682667
        ]
      },
      "properties": {
        "city_code": "33101",
        "town_code": "167",
        "pref_name": "岡山県",
        "city_name": "岡山市北区",
        "town_name": "津島西坂一丁目",
        "address": "岡山県岡山市北区津島西坂一丁目"
      }
    },
    {
      "type": "Feature",
      "geometry": {
        "type": "Point",
        "coordinates": [
          133.927078,
          34.686916
        ]
      },
      "properties": {
        "city_code": "33101",
        "town_code": "168",
        "pref_name": "岡山県",
        "city_name": "岡山市北区",
        "town_name": "津島東一丁目",
        "address": "岡山県岡山市北区津島東一丁目"
      }
    },
    {
      "type": "Feature",
      "geometry": {
        "type": "Point",
        "coordinates": [
          133.914047,
          34.689041
        ]
      },
      "properties": {
        "city_code": "33101",
        "town_code": "169",
        "pref_name": "岡山県",
        "city_name": "岡山市北区",
        "town_name": "津島福居一丁目",
        "address": "岡山県岡山市北区津島福居一丁目"
      }
    },
    {
      "type": "Feature",
      "geometry": {
        "type": "Point",
        "coordinates": [
          133.914673,
          34.670513
        ]
      },
      "properties": {
        "city_code": "33101",
        "town_code": "17",
        "pref_name": "岡山県",
        "city_name": "岡山市北区",
        "town_name": "伊福町一丁目",
        "address": "岡山県岡山市北区伊福町一丁目"
      }
    },
    {
      "type": "Feature",
      "geometry": {
        "type": "Point",
        "coordinates": [
          133.908524,
          34.688534
        ]
      },
      "properties": {
        "city_code": "33101",
        "town_code": "170",
        "pref_name": "岡山県",
        "city_name": "岡山市北区",
        "town_name": "津島本町",
        "address": "岡山県岡山市北区津島本町"
      }
    },
    {
      "type": "Feature",
      "geometry": {
        "type": "Point",
        "coordinates": [
          133.912689,
          34.683201
        ]
      },
      "properties": {
        "city_code": "33101",
        "town_code": "171",
        "pref_name": "岡山県",
        "city_name": "岡山市北区",
        "town_name": "津島南一丁目",
        "address": "岡山県岡山市北区津島南一丁目"
      }
    },
    {
      "type": "Feature",
      "geometry": {
        "type": "Point",
        "coordinates": [
          133.919113,
          34.696552
        ]
      },
      "properties": {
        "city_code": "33101",
        "town_code": "172",
        "pref_name": "岡山県",
        "city_name": "岡山市北区",
        "town_name": "津高",
        "address": "岡山県岡山市北区津高"
      }
    },
    {
      "type": "Feature",
      "geometry": {
        "type": "Point",
        "coordinates": [
          133.91684,
          34.69833
        ]
      },
      "properties": {
        "city_code": "33101",
        "town_code": "173",
        "pref_name": "岡山県",
        "city_name": "岡山市北区",
        "town_name": "津高台一丁目",
        "address": "岡山県岡山市北区津高台一丁目"
      }
    },
    {
      "type": "Feature",
      "geometry": {
        "type": "Point",
        "coordinates": [
          133.819946,
          34.676479
        ]
      },
      "properties": {
        "city_code": "33101",
        "town_code": "174",
        "pref_name": "岡山県",
        "city_name": "岡山市北区",
        "town_name": "津寺",
        "address": "岡山県岡山市北区津寺"
      }
    },
    {
      "type": "Feature",
      "geometry": {
        "type": "Point",
        "coordinates": [
          133.929306,
          34.667282
        ]
      },
      "properties": {
        "city_code": "33101",
        "town_code": "175",
        "pref_name": "岡山県",
        "city_name": "岡山市北区",
        "town_name": "天神町",
        "address": "岡山県岡山市北区天神町"
      }
    },
    {
      "type": "Feature",
      "geometry": {
        "type": "Point",
        "coordinates": [
          133.889038,
          34.644077
        ]
      },
      "properties": {
        "city_code": "33101",
        "town_code": "176",
        "pref_name": "岡山県",
        "city_name": "岡山市北区",
        "town_name": "問屋町",
        "address": "岡山県岡山市北区問屋町"
      }
    },
    {
      "type": "Feature",
      "geometry": {
        "type": "Point",
        "coordinates": [
          133.92897,
          34.637386
        ]
      },
      "properties": {
        "city_code": "33101",
        "town_code": "177",
        "pref_name": "岡山県",
        "city_name": "岡山市北区",
        "town_name": "十日市中町",
        "address": "岡山県岡山市北区十日市中町"
      }
    },
    {
      "type": "Feature",
      "geometry": {
        "type": "Point",
        "coordinates": [
          133.925217,
          34.637039
        ]
      },
      "properties": {
        "city_code": "33101",
        "town_code": "178",
        "pref_name": "岡山県",
        "city_name": "岡山市北区",
        "town_name": "十日市西町",
        "address": "岡山県岡山市北区十日市西町"
      }
    },
    {
      "type": "Feature",
      "geometry": {
        "type": "Point",
        "coordinates": [
          133.931717,
          34.636021
        ]
      },
      "properties": {
        "city_code": "33101",
        "town_code": "179",
        "pref_name": "岡山県",
        "city_name": "岡山市北区",
        "town_name": "十日市東町",
        "address": "岡山県岡山市北区十日市東町"
      }
    },
    {
      "type": "Feature",
      "geometry": {
        "type": "Point",
        "coordinates": [
          133.894791,
          34.651478
        ]
      },
      "properties": {
        "city_code": "33101",
        "town_code": "18",
        "pref_name": "岡山県",
        "city_name": "岡山市北区",
        "town_name": "今一丁目",
        "address": "岡山県岡山市北区今一丁目"
      }
    },
    {
      "type": "Feature",
      "geometry": {
        "type": "Point",
        "coordinates": [
          133.925262,
          34.664066
        ]
      },
      "properties": {
        "city_code": "33101",
        "town_code": "180",
        "pref_name": "岡山県",
        "city_name": "岡山市北区",
        "town_name": "磨屋町",
        "address": "岡山県岡山市北区磨屋町"
      }
    },
    {
      "type": "Feature",
      "geometry": {
        "type": "Point",
        "coordinates": [
          133.915222,
          34.639454
        ]
      },
      "properties": {
        "city_code": "33101",
        "town_code": "181",
        "pref_name": "岡山県",
        "city_name": "岡山市北区",
        "town_name": "富田",
        "address": "岡山県岡山市北区富田"
      }
    },
    {
      "type": "Feature",
      "geometry": {
        "type": "Point",
        "coordinates": [
          133.890076,
          34.697151
        ]
      },
      "properties": {
        "city_code": "33101",
        "town_code": "182",
        "pref_name": "岡山県",
        "city_name": "岡山市北区",
        "town_name": "富原",
        "address": "岡山県岡山市北区富原"
      }
    },
    {
      "type": "Feature",
      "geometry": {
        "type": "Point",
        "coordinates": [
          133.90921,
          34.666992
        ]
      },
      "properties": {
        "city_code": "33101",
        "town_code": "183",
        "pref_name": "岡山県",
        "city_name": "岡山市北区",
        "town_name": "富町一丁目",
        "address": "岡山県岡山市北区富町一丁目"
      }
    },
    {
      "type": "Feature",
      "geometry": {
        "type": "Point",
        "coordinates": [
          133.862778,
          34.734905
        ]
      },
      "properties": {
        "city_code": "33101",
        "town_code": "184",
        "pref_name": "岡山県",
        "city_name": "岡山市北区",
        "town_name": "富吉",
        "address": "岡山県岡山市北区富吉"
      }
    },
    {
      "type": "Feature",
      "geometry": {
        "type": "Point",
        "coordinates": [
          133.923553,
          34.66993
        ]
      },
      "properties": {
        "city_code": "33101",
        "town_code": "185",
        "pref_name": "岡山県",
        "city_name": "岡山市北区",
        "town_name": "富田町一丁目",
        "address": "岡山県岡山市北区富田町一丁目"
      }
    },
    {
      "type": "Feature",
      "geometry": {
        "type": "Point",
        "coordinates": [
          133.929413,
          34.682072
        ]
      },
      "properties": {
        "city_code": "33101",
        "town_code": "186",
        "pref_name": "岡山県",
        "city_name": "岡山市北区",
        "town_name": "中井町一丁目",
        "address": "岡山県岡山市北区中井町一丁目"
      }
    },
    {
      "type": "Feature",
      "geometry": {
        "type": "Point",
        "coordinates": [
          133.927414,
          34.664043
        ]
      },
      "properties": {
        "city_code": "33101",
        "town_code": "187",
        "pref_name": "岡山県",
        "city_name": "岡山市北区",
        "town_name": "中山下一丁目",
        "address": "岡山県岡山市北区中山下一丁目"
      }
    },
    {
      "type": "Feature",
      "geometry": {
        "type": "Point",
        "coordinates": [
          133.911346,
          34.660271
        ]
      },
      "properties": {
        "city_code": "33101",
        "town_code": "188",
        "pref_name": "岡山県",
        "city_name": "岡山市北区",
        "town_name": "中島田町一丁目",
        "address": "岡山県岡山市北区中島田町一丁目"
      }
    },
    {
      "type": "Feature",
      "geometry": {
        "type": "Point",
        "coordinates": [
          133.885025,
          34.644485
        ]
      },
      "properties": {
        "city_code": "33101",
        "town_code": "189",
        "pref_name": "岡山県",
        "city_name": "岡山市北区",
        "town_name": "中仙道",
        "address": "岡山県岡山市北区中仙道"
      }
    },
    {
      "type": "Feature",
      "geometry": {
        "type": "Point",
        "coordinates": [
          133.870392,
          34.690125
        ]
      },
      "properties": {
        "city_code": "33101",
        "town_code": "19",
        "pref_name": "岡山県",
        "city_name": "岡山市北区",
        "town_name": "今岡",
        "address": "岡山県岡山市北区今岡"
      }
    },
    {
      "type": "Feature",
      "geometry": {
        "type": "Point",
        "coordinates": [
          133.88884,
          34.647877
        ]
      },
      "properties": {
        "city_code": "33101",
        "town_code": "190",
        "pref_name": "岡山県",
        "city_name": "岡山市北区",
        "town_name": "中仙道一丁目",
        "address": "岡山県岡山市北区中仙道一丁目"
      }
    },
    {
      "type": "Feature",
      "geometry": {
        "type": "Point",
        "coordinates": [
          133.840591,
          34.650021
        ]
      },
      "properties": {
        "city_code": "33101",
        "town_code": "191",
        "pref_name": "岡山県",
        "city_name": "岡山市北区",
        "town_name": "中撫川",
        "address": "岡山県岡山市北区中撫川"
      }
    },
    {
      "type": "Feature",
      "geometry": {
        "type": "Point",
        "coordinates": [
          133.843216,
          34.719406
        ]
      },
      "properties": {
        "city_code": "33101",
        "town_code": "192",
        "pref_name": "岡山県",
        "city_name": "岡山市北区",
        "town_name": "長野",
        "address": "岡山県岡山市北区長野"
      }
    },
    {
      "type": "Feature",
      "geometry": {
        "type": "Point",
        "coordinates": [
          133.949692,
          34.703457
        ]
      },
      "properties": {
        "city_code": "33101",
        "town_code": "193",
        "pref_name": "岡山県",
        "city_name": "岡山市北区",
        "town_name": "中原",
        "address": "岡山県岡山市北区中原"
      }
    },
    {
      "type": "Feature",
      "geometry": {
        "type": "Point",
        "coordinates": [
          133.961136,
          34.763004
        ]
      },
      "properties": {
        "city_code": "33101",
        "town_code": "194",
        "pref_name": "岡山県",
        "city_name": "岡山市北区",
        "town_name": "中牧",
        "address": "岡山県岡山市北区中牧"
      }
    },
    {
      "type": "Feature",
      "geometry": {
        "type": "Point",
        "coordinates": [
          133.841461,
          34.642654
        ]
      },
      "properties": {
        "city_code": "33101",
        "town_code": "195",
        "pref_name": "岡山県",
        "city_name": "岡山市北区",
        "town_name": "撫川",
        "address": "岡山県岡山市北区撫川"
      }
    },
    {
      "type": "Feature",
      "geometry": {
        "type": "Point",
        "coordinates": [
          133.929367,
          34.63987
        ]
      },
      "properties": {
        "city_code": "33101",
        "town_code": "196",
        "pref_name": "岡山県",
        "city_name": "岡山市北区",
        "town_name": "七日市西町",
        "address": "岡山県岡山市北区七日市西町"
      }
    },
    {
      "type": "Feature",
      "geometry": {
        "type": "Point",
        "coordinates": [
          133.931915,
          34.640259
        ]
      },
      "properties": {
        "city_code": "33101",
        "town_code": "197",
        "pref_name": "岡山県",
        "city_name": "岡山市北区",
        "town_name": "七日市東町",
        "address": "岡山県岡山市北区七日市東町"
      }
    },
    {
      "type": "Feature",
      "geometry": {
        "type": "Point",
        "coordinates": [
          133.88562,
          34.684177
        ]
      },
      "properties": {
        "city_code": "33101",
        "town_code": "198",
        "pref_name": "岡山県",
        "city_name": "岡山市北区",
        "town_name": "楢津",
        "address": "岡山県岡山市北区楢津"
      }
    },
    {
      "type": "Feature",
      "geometry": {
        "type": "Point",
        "coordinates": [
          133.900345,
          34.636642
        ]
      },
      "properties": {
        "city_code": "33101",
        "town_code": "199",
        "pref_name": "岡山県",
        "city_name": "岡山市北区",
        "town_name": "西市",
        "address": "岡山県岡山市北区西市"
      }
    },
    {
      "type": "Feature",
      "geometry": {
        "type": "Point",
        "coordinates": [
          133.918137,
          34.634109
        ]
      },
      "properties": {
        "city_code": "33101",
        "town_code": "2",
        "pref_name": "岡山県",
        "city_name": "岡山市北区",
        "town_name": "青江一丁目",
        "address": "岡山県岡山市北区青江一丁目"
      }
    },
    {
      "type": "Feature",
      "geometry": {
        "type": "Point",
        "coordinates": [
          133.873337,
          34.637753
        ]
      },
      "properties": {
        "city_code": "33101",
        "town_code": "20",
        "pref_name": "岡山県",
        "city_name": "岡山市北区",
        "town_name": "今保",
        "address": "岡山県岡山市北区今保"
      }
    },
    {
      "type": "Feature",
      "geometry": {
        "type": "Point",
        "coordinates": [
          133.854431,
          34.682823
        ]
      },
      "properties": {
        "city_code": "33101",
        "town_code": "200",
        "pref_name": "岡山県",
        "city_name": "岡山市北区",
        "town_name": "西辛川",
        "address": "岡山県岡山市北区西辛川"
      }
    },
    {
      "type": "Feature",
      "geometry": {
        "type": "Point",
        "coordinates": [
          133.920898,
          34.66325
        ]
      },
      "properties": {
        "city_code": "33101",
        "town_code": "201",
        "pref_name": "岡山県",
        "city_name": "岡山市北区",
        "town_name": "錦町",
        "address": "岡山県岡山市北区錦町"
      }
    },
    {
      "type": "Feature",
      "geometry": {
        "type": "Point",
        "coordinates": [
          133.898087,
          34.664722
        ]
      },
      "properties": {
        "city_code": "33101",
        "town_code": "202",
        "pref_name": "岡山県",
        "city_name": "岡山市北区",
        "town_name": "西崎一丁目",
        "address": "岡山県岡山市北区西崎一丁目"
      }
    },
    {
      "type": "Feature",
      "geometry": {
        "type": "Point",
        "coordinates": [
          133.894821,
          34.66946
        ]
      },
      "properties": {
        "city_code": "33101",
        "town_code": "203",
        "pref_name": "岡山県",
        "city_name": "岡山市北区",
        "town_name": "西崎本町",
        "address": "岡山県岡山市北区西崎本町"
      }
    },
    {
      "type": "Feature",
      "geometry": {
        "type": "Point",
        "coordinates": [
          133.908524,
          34.660004
        ]
      },
      "properties": {
        "city_code": "33101",
        "town_code": "204",
        "pref_name": "岡山県",
        "city_name": "岡山市北区",
        "town_name": "西島田町",
        "address": "岡山県岡山市北区西島田町"
      }
    },
    {
      "type": "Feature",
      "geometry": {
        "type": "Point",
        "coordinates": [
          133.87915,
          34.647694
        ]
      },
      "properties": {
        "city_code": "33101",
        "town_code": "205",
        "pref_name": "岡山県",
        "city_name": "岡山市北区",
        "town_name": "西長瀬",
        "address": "岡山県岡山市北区西長瀬"
      }
    },
    {
      "type": "Feature",
      "geometry": {
        "type": "Point",
        "coordinates": [
          133.908386,
          34.651459
        ]
      },
      "properties": {
        "city_code": "33101",
        "town_code": "206",
        "pref_name": "岡山県",
        "city_name": "岡山市北区",
        "town_name": "西之町",
        "address": "岡山県岡山市北区西之町"
      }
    },
    {
      "type": "Feature",
      "geometry": {
        "type": "Point",
        "coordinates": [
          133.877045,
          34.667282
        ]
      },
      "properties": {
        "city_code": "33101",
        "town_code": "207",
        "pref_name": "岡山県",
        "city_name": "岡山市北区",
        "town_name": "西野山町",
        "address": "岡山県岡山市北区西野山町"
      }
    },
    {
      "type": "Feature",
      "geometry": {
        "type": "Point",
        "coordinates": [
          133.856049,
          34.657951
        ]
      },
      "properties": {
        "city_code": "33101",
        "town_code": "208",
        "pref_name": "岡山県",
        "city_name": "岡山市北区",
        "town_name": "西花尻",
        "address": "岡山県岡山市北区西花尻"
      }
    },
    {
      "type": "Feature",
      "geometry": {
        "type": "Point",
        "coordinates": [
          133.907822,
          34.644501
        ]
      },
      "properties": {
        "city_code": "33101",
        "town_code": "209",
        "pref_name": "岡山県",
        "city_name": "岡山市北区",
        "town_name": "西古松",
        "address": "岡山県岡山市北区西古松"
      }
    },
    {
      "type": "Feature",
      "geometry": {
        "type": "Point",
        "coordinates": [
          133.89595,
          34.639526
        ]
      },
      "properties": {
        "city_code": "33101",
        "town_code": "21",
        "pref_name": "岡山県",
        "city_name": "岡山市北区",
        "town_name": "今村",
        "address": "岡山県岡山市北区今村"
      }
    },
    {
      "type": "Feature",
      "geometry": {
        "type": "Point",
        "coordinates": [
          133.907639,
          34.649117
        ]
      },
      "properties": {
        "city_code": "33101",
        "town_code": "210",
        "pref_name": "岡山県",
        "city_name": "岡山市北区",
        "town_name": "西古松一丁目",
        "address": "岡山県岡山市北区西古松一丁目"
      }
    },
    {
      "type": "Feature",
      "geometry": {
        "type": "Point",
        "coordinates": [
          133.903564,
          34.648872
        ]
      },
      "properties": {
        "city_code": "33101",
        "town_code": "211",
        "pref_name": "岡山県",
        "city_name": "岡山市北区",
        "town_name": "西古松西町",
        "address": "岡山県岡山市北区西古松西町"
      }
    },
    {
      "type": "Feature",
      "geometry": {
        "type": "Point",
        "coordinates": [
          133.754868,
          34.767075
        ]
      },
      "properties": {
        "city_code": "33101",
        "town_code": "212",
        "pref_name": "岡山県",
        "city_name": "岡山市北区",
        "town_name": "西山内",
        "address": "岡山県岡山市北区西山内"
      }
    },
    {
      "type": "Feature",
      "geometry": {
        "type": "Point",
        "coordinates": [
          133.862045,
          34.767311
        ]
      },
      "properties": {
        "city_code": "33101",
        "town_code": "213",
        "pref_name": "岡山県",
        "city_name": "岡山市北区",
        "town_name": "日応寺",
        "address": "岡山県岡山市北区日応寺"
      }
    },
    {
      "type": "Feature",
      "geometry": {
        "type": "Point",
        "coordinates": [
          133.84996,
          34.644863
        ]
      },
      "properties": {
        "city_code": "33101",
        "town_code": "214",
        "pref_name": "岡山県",
        "city_name": "岡山市北区",
        "town_name": "庭瀬",
        "address": "岡山県岡山市北区庭瀬"
      }
    },
    {
      "type": "Feature",
      "geometry": {
        "type": "Point",
        "coordinates": [
          133.837082,
          34.658451
        ]
      },
      "properties": {
        "city_code": "33101",
        "town_code": "215",
        "pref_name": "岡山県",
        "city_name": "岡山市北区",
        "town_name": "納所",
        "address": "岡山県岡山市北区納所"
      }
    },
    {
      "type": "Feature",
      "geometry": {
        "type": "Point",
        "coordinates": [
          133.905396,
          34.653229
        ]
      },
      "properties": {
        "city_code": "33101",
        "town_code": "216",
        "pref_name": "岡山県",
        "city_name": "岡山市北区",
        "town_name": "野田一丁目",
        "address": "岡山県岡山市北区野田一丁目"
      }
    },
    {
      "type": "Feature",
      "geometry": {
        "type": "Point",
        "coordinates": [
          133.924469,
          34.666401
        ]
      },
      "properties": {
        "city_code": "33101",
        "town_code": "217",
        "pref_name": "岡山県",
        "city_name": "岡山市北区",
        "town_name": "野田屋町一丁目",
        "address": "岡山県岡山市北区野田屋町一丁目"
      }
    },
    {
      "type": "Feature",
      "geometry": {
        "type": "Point",
        "coordinates": [
          133.879227,
          34.660904
        ]
      },
      "properties": {
        "city_code": "33101",
        "town_code": "218",
        "pref_name": "岡山県",
        "city_name": "岡山市北区",
        "town_name": "野殿西町",
        "address": "岡山県岡山市北区野殿西町"
      }
    },
    {
      "type": "Feature",
      "geometry": {
        "type": "Point",
        "coordinates": [
          133.883026,
          34.661514
        ]
      },
      "properties": {
        "city_code": "33101",
        "town_code": "219",
        "pref_name": "岡山県",
        "city_name": "岡山市北区",
        "town_name": "野殿東町",
        "address": "岡山県岡山市北区野殿東町"
      }
    },
    {
      "type": "Feature",
      "geometry": {
        "type": "Point",
        "coordinates": [
          133.896683,
          34.67054
        ]
      },
      "properties": {
        "city_code": "33101",
        "town_code": "22",
        "pref_name": "岡山県",
        "city_name": "岡山市北区",
        "town_name": "岩井一丁目",
        "address": "岡山県岡山市北区岩井一丁目"
      }
    },
    {
      "type": "Feature",
      "geometry": {
        "type": "Point",
        "coordinates": [
          133.863998,
          34.638767
        ]
      },
      "properties": {
        "city_code": "33101",
        "town_code": "220",
        "pref_name": "岡山県",
        "city_name": "岡山市北区",
        "town_name": "延友",
        "address": "岡山県岡山市北区延友"
      }
    },
    {
      "type": "Feature",
      "geometry": {
        "type": "Point",
        "coordinates": [
          133.871201,
          34.713463
        ]
      },
      "properties": {
        "city_code": "33101",
        "town_code": "221",
        "pref_name": "岡山県",
        "city_name": "岡山市北区",
        "town_name": "芳賀",
        "address": "岡山県岡山市北区芳賀"
      }
    },
    {
      "type": "Feature",
      "geometry": {
        "type": "Point",
        "coordinates": [
          133.936935,
          34.725353
        ]
      },
      "properties": {
        "city_code": "33101",
        "town_code": "222",
        "pref_name": "岡山県",
        "city_name": "岡山市北区",
        "town_name": "畑鮎",
        "address": "岡山県岡山市北区畑鮎"
      }
    },
    {
      "type": "Feature",
      "geometry": {
        "type": "Point",
        "coordinates": [
          133.867111,
          34.658493
        ]
      },
      "properties": {
        "city_code": "33101",
        "town_code": "223",
        "pref_name": "岡山県",
        "city_name": "岡山市北区",
        "town_name": "花尻",
        "address": "岡山県岡山市北区花尻"
      }
    },
    {
      "type": "Feature",
      "geometry": {
        "type": "Point",
        "coordinates": [
          133.868622,
          34.657772
        ]
      },
      "properties": {
        "city_code": "33101",
        "town_code": "224",
        "pref_name": "岡山県",
        "city_name": "岡山市北区",
        "town_name": "花尻あかね町",
        "address": "岡山県岡山市北区花尻あかね町"
      }
    },
    {
      "type": "Feature",
      "geometry": {
        "type": "Point",
        "coordinates": [
          133.871124,
          34.658298
        ]
      },
      "properties": {
        "city_code": "33101",
        "town_code": "225",
        "pref_name": "岡山県",
        "city_name": "岡山市北区",
        "town_name": "花尻ききょう町",
        "address": "岡山県岡山市北区花尻ききょう町"
      }
    },
    {
      "type": "Feature",
      "geometry": {
        "type": "Point",
        "coordinates": [
          133.874786,
          34.659264
        ]
      },
      "properties": {
        "city_code": "33101",
        "town_code": "226",
        "pref_name": "岡山県",
        "city_name": "岡山市北区",
        "town_name": "花尻みどり町",
        "address": "岡山県岡山市北区花尻みどり町"
      }
    },
    {
      "type": "Feature",
      "geometry": {
        "type": "Point",
        "coordinates": [
          133.940247,
          34.710129
        ]
      },
      "properties": {
        "city_code": "33101",
        "town_code": "227",
        "pref_name": "岡山県",
        "city_name": "岡山市北区",
        "town_name": "原",
        "address": "岡山県岡山市北区原"
      }
    },
    {
      "type": "Feature",
      "geometry": {
        "type": "Point",
        "coordinates": [
          133.927155,
          34.667446
        ]
      },
      "properties": {
        "city_code": "33101",
        "town_code": "228",
        "pref_name": "岡山県",
        "city_name": "岡山市北区",
        "town_name": "蕃山町",
        "address": "岡山県岡山市北区蕃山町"
      }
    },
    {
      "type": "Feature",
      "geometry": {
        "type": "Point",
        "coordinates": [
          133.93306,
          34.696598
        ]
      },
      "properties": {
        "city_code": "33101",
        "town_code": "229",
        "pref_name": "岡山県",
        "city_name": "岡山市北区",
        "town_name": "半田町",
        "address": "岡山県岡山市北区半田町"
      }
    },
    {
      "type": "Feature",
      "geometry": {
        "type": "Point",
        "coordinates": [
          133.903931,
          34.671738
        ]
      },
      "properties": {
        "city_code": "33101",
        "town_code": "23",
        "pref_name": "岡山県",
        "city_name": "岡山市北区",
        "town_name": "岩井宮裏",
        "address": "岡山県岡山市北区岩井宮裏"
      }
    },
    {
      "type": "Feature",
      "geometry": {
        "type": "Point",
        "coordinates": [
          133.928375,
          34.672302
        ]
      },
      "properties": {
        "city_code": "33101",
        "town_code": "230",
        "pref_name": "岡山県",
        "city_name": "岡山市北区",
        "town_name": "番町一丁目",
        "address": "岡山県岡山市北区番町一丁目"
      }
    },
    {
      "type": "Feature",
      "geometry": {
        "type": "Point",
        "coordinates": [
          133.9133,
          34.660397
        ]
      },
      "properties": {
        "city_code": "33101",
        "town_code": "231",
        "pref_name": "岡山県",
        "city_name": "岡山市北区",
        "town_name": "東島田町一丁目",
        "address": "岡山県岡山市北区東島田町一丁目"
      }
    },
    {
      "type": "Feature",
      "geometry": {
        "type": "Point",
        "coordinates": [
          133.926895,
          34.655254
        ]
      },
      "properties": {
        "city_code": "33101",
        "town_code": "232",
        "pref_name": "岡山県",
        "city_name": "岡山市北区",
        "town_name": "東中央町",
        "address": "岡山県岡山市北区東中央町"
      }
    },
    {
      "type": "Feature",
      "geometry": {
        "type": "Point",
        "coordinates": [
          133.881638,
          34.667831
        ]
      },
      "properties": {
        "city_code": "33101",
        "town_code": "233",
        "pref_name": "岡山県",
        "city_name": "岡山市北区",
        "town_name": "東野山町",
        "address": "岡山県岡山市北区東野山町"
      }
    },
    {
      "type": "Feature",
      "geometry": {
        "type": "Point",
        "coordinates": [
          133.862961,
          34.654747
        ]
      },
      "properties": {
        "city_code": "33101",
        "town_code": "234",
        "pref_name": "岡山県",
        "city_name": "岡山市北区",
        "town_name": "東花尻",
        "address": "岡山県岡山市北区東花尻"
      }
    },
    {
      "type": "Feature",
      "geometry": {
        "type": "Point",
        "coordinates": [
          133.914108,
          34.642593
        ]
      },
      "properties": {
        "city_code": "33101",
        "town_code": "235",
        "pref_name": "岡山県",
        "city_name": "岡山市北区",
        "town_name": "東古松",
        "address": "岡山県岡山市北区東古松"
      }
    },
    {
      "type": "Feature",
      "geometry": {
        "type": "Point",
        "coordinates": [
          133.916916,
          34.649319
        ]
      },
      "properties": {
        "city_code": "33101",
        "town_code": "236",
        "pref_name": "岡山県",
        "city_name": "岡山市北区",
        "town_name": "東古松一丁目",
        "address": "岡山県岡山市北区東古松一丁目"
      }
    },
    {
      "type": "Feature",
      "geometry": {
        "type": "Point",
        "coordinates": [
          133.914734,
          34.644173
        ]
      },
      "properties": {
        "city_code": "33101",
        "town_code": "237",
        "pref_name": "岡山県",
        "city_name": "岡山市北区",
        "town_name": "東古松南町",
        "address": "岡山県岡山市北区東古松南町"
      }
    },
    {
      "type": "Feature",
      "geometry": {
        "type": "Point",
        "coordinates": [
          133.78833,
          34.781036
        ]
      },
      "properties": {
        "city_code": "33101",
        "town_code": "238",
        "pref_name": "岡山県",
        "city_name": "岡山市北区",
        "town_name": "東山内",
        "address": "岡山県岡山市北区東山内"
      }
    },
    {
      "type": "Feature",
      "geometry": {
        "type": "Point",
        "coordinates": [
          133.813461,
          34.748554
        ]
      },
      "properties": {
        "city_code": "33101",
        "town_code": "239",
        "pref_name": "岡山県",
        "city_name": "岡山市北区",
        "town_name": "日近",
        "address": "岡山県岡山市北区日近"
      }
    },
    {
      "type": "Feature",
      "geometry": {
        "type": "Point",
        "coordinates": [
          133.921585,
          34.669945
        ]
      },
      "properties": {
        "city_code": "33101",
        "town_code": "24",
        "pref_name": "岡山県",
        "city_name": "岡山市北区",
        "town_name": "岩田町",
        "address": "岡山県岡山市北区岩田町"
      }
    },
    {
      "type": "Feature",
      "geometry": {
        "type": "Point",
        "coordinates": [
          133.879959,
          34.654167
        ]
      },
      "properties": {
        "city_code": "33101",
        "town_code": "240",
        "pref_name": "岡山県",
        "city_name": "岡山市北区",
        "town_name": "日吉町",
        "address": "岡山県岡山市北区日吉町"
      }
    },
    {
      "type": "Feature",
      "geometry": {
        "type": "Point",
        "coordinates": [
          133.886612,
          34.633507
        ]
      },
      "properties": {
        "city_code": "33101",
        "town_code": "241",
        "pref_name": "岡山県",
        "city_name": "岡山市北区",
        "town_name": "平田",
        "address": "岡山県岡山市北区平田"
      }
    },
    {
      "type": "Feature",
      "geometry": {
        "type": "Point",
        "coordinates": [
          133.857758,
          34.643494
        ]
      },
      "properties": {
        "city_code": "33101",
        "town_code": "242",
        "pref_name": "岡山県",
        "city_name": "岡山市北区",
        "town_name": "平野",
        "address": "岡山県岡山市北区平野"
      }
    },
    {
      "type": "Feature",
      "geometry": {
        "type": "Point",
        "coordinates": [
          133.833786,
          34.698692
        ]
      },
      "properties": {
        "city_code": "33101",
        "town_code": "243",
        "pref_name": "岡山県",
        "city_name": "岡山市北区",
        "town_name": "平山",
        "address": "岡山県岡山市北区平山"
      }
    },
    {
      "type": "Feature",
      "geometry": {
        "type": "Point",
        "coordinates": [
          133.928619,
          34.676788
        ]
      },
      "properties": {
        "city_code": "33101",
        "town_code": "244",
        "pref_name": "岡山県",
        "city_name": "岡山市北区",
        "town_name": "広瀬町",
        "address": "岡山県岡山市北区広瀬町"
      }
    },
    {
      "type": "Feature",
      "geometry": {
        "type": "Point",
        "coordinates": [
          133.802277,
          34.695919
        ]
      },
      "properties": {
        "city_code": "33101",
        "town_code": "245",
        "pref_name": "岡山県",
        "city_name": "岡山市北区",
        "town_name": "福崎",
        "address": "岡山県岡山市北区福崎"
      }
    },
    {
      "type": "Feature",
      "geometry": {
        "type": "Point",
        "coordinates": [
          133.853745,
          34.712185
        ]
      },
      "properties": {
        "city_code": "33101",
        "town_code": "246",
        "pref_name": "岡山県",
        "city_name": "岡山市北区",
        "town_name": "福谷",
        "address": "岡山県岡山市北区福谷"
      }
    },
    {
      "type": "Feature",
      "geometry": {
        "type": "Point",
        "coordinates": [
          133.929459,
          34.64682
        ]
      },
      "properties": {
        "city_code": "33101",
        "town_code": "247",
        "pref_name": "岡山県",
        "city_name": "岡山市北区",
        "town_name": "二日市町",
        "address": "岡山県岡山市北区二日市町"
      }
    },
    {
      "type": "Feature",
      "geometry": {
        "type": "Point",
        "coordinates": [
          133.930344,
          34.652309
        ]
      },
      "properties": {
        "city_code": "33101",
        "town_code": "248",
        "pref_name": "岡山県",
        "city_name": "岡山市北区",
        "town_name": "舟橋町",
        "address": "岡山県岡山市北区舟橋町"
      }
    },
    {
      "type": "Feature",
      "geometry": {
        "type": "Point",
        "coordinates": [
          133.931213,
          34.67659
        ]
      },
      "properties": {
        "city_code": "33101",
        "town_code": "249",
        "pref_name": "岡山県",
        "city_name": "岡山市北区",
        "town_name": "兵団",
        "address": "岡山県岡山市北区兵団"
      }
    },
    {
      "type": "Feature",
      "geometry": {
        "type": "Point",
        "coordinates": [
          133.931625,
          34.660793
        ]
      },
      "properties": {
        "city_code": "33101",
        "town_code": "25",
        "pref_name": "岡山県",
        "city_name": "岡山市北区",
        "town_name": "内山下一丁目",
        "address": "岡山県岡山市北区内山下一丁目"
      }
    },
    {
      "type": "Feature",
      "geometry": {
        "type": "Point",
        "coordinates": [
          133.923492,
          34.664066
        ]
      },
      "properties": {
        "city_code": "33101",
        "town_code": "250",
        "pref_name": "岡山県",
        "city_name": "岡山市北区",
        "town_name": "平和町",
        "address": "岡山県岡山市北区平和町"
      }
    },
    {
      "type": "Feature",
      "geometry": {
        "type": "Point",
        "coordinates": [
          133.932205,
          34.693302
        ]
      },
      "properties": {
        "city_code": "33101",
        "town_code": "251",
        "pref_name": "岡山県",
        "city_name": "岡山市北区",
        "town_name": "法界院",
        "address": "岡山県岡山市北区法界院"
      }
    },
    {
      "type": "Feature",
      "geometry": {
        "type": "Point",
        "coordinates": [
          133.919006,
          34.669586
        ]
      },
      "properties": {
        "city_code": "33101",
        "town_code": "252",
        "pref_name": "岡山県",
        "city_name": "岡山市北区",
        "town_name": "奉還町一丁目",
        "address": "岡山県岡山市北区奉還町一丁目"
      }
    },
    {
      "type": "Feature",
      "geometry": {
        "type": "Point",
        "coordinates": [
          133.920898,
          34.664715
        ]
      },
      "properties": {
        "city_code": "33101",
        "town_code": "253",
        "pref_name": "岡山県",
        "city_name": "岡山市北区",
        "town_name": "本町",
        "address": "岡山県岡山市北区本町"
      }
    },
    {
      "type": "Feature",
      "geometry": {
        "type": "Point",
        "coordinates": [
          133.771408,
          34.784657
        ]
      },
      "properties": {
        "city_code": "33101",
        "town_code": "254",
        "pref_name": "岡山県",
        "city_name": "岡山市北区",
        "town_name": "間倉",
        "address": "岡山県岡山市北区間倉"
      }
    },
    {
      "type": "Feature",
      "geometry": {
        "type": "Point",
        "coordinates": [
          133.867157,
          34.69643
        ]
      },
      "properties": {
        "city_code": "33101",
        "town_code": "255",
        "pref_name": "岡山県",
        "city_name": "岡山市北区",
        "town_name": "松尾",
        "address": "岡山県岡山市北区松尾"
      }
    },
    {
      "type": "Feature",
      "geometry": {
        "type": "Point",
        "coordinates": [
          133.811981,
          34.793308
        ]
      },
      "properties": {
        "city_code": "33101",
        "town_code": "256",
        "pref_name": "岡山県",
        "city_name": "岡山市北区",
        "town_name": "真星",
        "address": "岡山県岡山市北区真星"
      }
    },
    {
      "type": "Feature",
      "geometry": {
        "type": "Point",
        "coordinates": [
          133.931351,
          34.66404
        ]
      },
      "properties": {
        "city_code": "33101",
        "town_code": "257",
        "pref_name": "岡山県",
        "city_name": "岡山市北区",
        "town_name": "丸の内一丁目",
        "address": "岡山県岡山市北区丸の内一丁目"
      }
    },
    {
      "type": "Feature",
      "geometry": {
        "type": "Point",
        "coordinates": [
          133.89064,
          34.675938
        ]
      },
      "properties": {
        "city_code": "33101",
        "town_code": "258",
        "pref_name": "岡山県",
        "city_name": "岡山市北区",
        "town_name": "万成西町",
        "address": "岡山県岡山市北区万成西町"
      }
    },
    {
      "type": "Feature",
      "geometry": {
        "type": "Point",
        "coordinates": [
          133.894608,
          34.675308
        ]
      },
      "properties": {
        "city_code": "33101",
        "town_code": "259",
        "pref_name": "岡山県",
        "city_name": "岡山市北区",
        "town_name": "万成東町",
        "address": "岡山県岡山市北区万成東町"
      }
    },
    {
      "type": "Feature",
      "geometry": {
        "type": "Point",
        "coordinates": [
          133.921005,
          34.666382
        ]
      },
      "properties": {
        "city_code": "33101",
        "town_code": "26",
        "pref_name": "岡山県",
        "city_name": "岡山市北区",
        "town_name": "駅前町一丁目",
        "address": "岡山県岡山市北区駅前町一丁目"
      }
    },
    {
      "type": "Feature",
      "geometry": {
        "type": "Point",
        "coordinates": [
          133.903488,
          34.66925
        ]
      },
      "properties": {
        "city_code": "33101",
        "town_code": "260",
        "pref_name": "岡山県",
        "city_name": "岡山市北区",
        "town_name": "三門中町",
        "address": "岡山県岡山市北区三門中町"
      }
    },
    {
      "type": "Feature",
      "geometry": {
        "type": "Point",
        "coordinates": [
          133.901184,
          34.670052
        ]
      },
      "properties": {
        "city_code": "33101",
        "town_code": "261",
        "pref_name": "岡山県",
        "city_name": "岡山市北区",
        "town_name": "三門西町",
        "address": "岡山県岡山市北区三門西町"
      }
    },
    {
      "type": "Feature",
      "geometry": {
        "type": "Point",
        "coordinates": [
          133.905685,
          34.669914
        ]
      },
      "properties": {
        "city_code": "33101",
        "town_code": "262",
        "pref_name": "岡山県",
        "city_name": "岡山市北区",
        "town_name": "三門東町",
        "address": "岡山県岡山市北区三門東町"
      }
    },
    {
      "type": "Feature",
      "geometry": {
        "type": "Point",
        "coordinates": [
          133.965576,
          34.840359
        ]
      },
      "properties": {
        "city_code": "33101",
        "town_code": "263",
        "pref_name": "岡山県",
        "city_name": "岡山市北区",
        "town_name": "御津石上",
        "address": "岡山県岡山市北区御津石上"
      }
    },
    {
      "type": "Feature",
      "geometry": {
        "type": "Point",
        "coordinates": [
          133.957718,
          34.800327
        ]
      },
      "properties": {
        "city_code": "33101",
        "town_code": "264",
        "pref_name": "岡山県",
        "city_name": "岡山市北区",
        "town_name": "御津伊田",
        "address": "岡山県岡山市北区御津伊田"
      }
    },
    {
      "type": "Feature",
      "geometry": {
        "type": "Point",
        "coordinates": [
          133.872009,
          34.804455
        ]
      },
      "properties": {
        "city_code": "33101",
        "town_code": "265",
        "pref_name": "岡山県",
        "city_name": "岡山市北区",
        "town_name": "御津宇甘",
        "address": "岡山県岡山市北区御津宇甘"
      }
    },
    {
      "type": "Feature",
      "geometry": {
        "type": "Point",
        "coordinates": [
          133.924362,
          34.782856
        ]
      },
      "properties": {
        "city_code": "33101",
        "town_code": "266",
        "pref_name": "岡山県",
        "city_name": "岡山市北区",
        "town_name": "御津宇垣",
        "address": "岡山県岡山市北区御津宇垣"
      }
    },
    {
      "type": "Feature",
      "geometry": {
        "type": "Point",
        "coordinates": [
          133.92305,
          34.834
        ]
      },
      "properties": {
        "city_code": "33101",
        "town_code": "267",
        "pref_name": "岡山県",
        "city_name": "岡山市北区",
        "town_name": "御津鹿瀬",
        "address": "岡山県岡山市北区御津鹿瀬"
      }
    },
    {
      "type": "Feature",
      "geometry": {
        "type": "Point",
        "coordinates": [
          133.847885,
          34.792278
        ]
      },
      "properties": {
        "city_code": "33101",
        "town_code": "268",
        "pref_name": "岡山県",
        "city_name": "岡山市北区",
        "town_name": "御津勝尾",
        "address": "岡山県岡山市北区御津勝尾"
      }
    },
    {
      "type": "Feature",
      "geometry": {
        "type": "Point",
        "coordinates": [
          133.927658,
          34.796734
        ]
      },
      "properties": {
        "city_code": "33101",
        "town_code": "269",
        "pref_name": "岡山県",
        "city_name": "岡山市北区",
        "town_name": "御津金川",
        "address": "岡山県岡山市北区御津金川"
      }
    },
    {
      "type": "Feature",
      "geometry": {
        "type": "Point",
        "coordinates": [
          133.916733,
          34.665421
        ]
      },
      "properties": {
        "city_code": "33101",
        "town_code": "27",
        "pref_name": "岡山県",
        "city_name": "岡山市北区",
        "town_name": "駅元町",
        "address": "岡山県岡山市北区駅元町"
      }
    },
    {
      "type": "Feature",
      "geometry": {
        "type": "Point",
        "coordinates": [
          133.938721,
          34.751648
        ]
      },
      "properties": {
        "city_code": "33101",
        "town_code": "271",
        "pref_name": "岡山県",
        "city_name": "岡山市北区",
        "town_name": "御津北野",
        "address": "岡山県岡山市北区御津北野"
      }
    },
    {
      "type": "Feature",
      "geometry": {
        "type": "Point",
        "coordinates": [
          133.932419,
          34.815365
        ]
      },
      "properties": {
        "city_code": "33101",
        "town_code": "272",
        "pref_name": "岡山県",
        "city_name": "岡山市北区",
        "town_name": "御津草生",
        "address": "岡山県岡山市北区御津草生"
      }
    },
    {
      "type": "Feature",
      "geometry": {
        "type": "Point",
        "coordinates": [
          133.944427,
          34.775623
        ]
      },
      "properties": {
        "city_code": "33101",
        "town_code": "273",
        "pref_name": "岡山県",
        "city_name": "岡山市北区",
        "town_name": "御津国ケ原",
        "address": "岡山県岡山市北区御津国ケ原"
      }
    },
    {
      "type": "Feature",
      "geometry": {
        "type": "Point",
        "coordinates": [
          133.893112,
          34.778763
        ]
      },
      "properties": {
        "city_code": "33101",
        "town_code": "274",
        "pref_name": "岡山県",
        "city_name": "岡山市北区",
        "town_name": "御津河内",
        "address": "岡山県岡山市北区御津河内"
      }
    },
    {
      "type": "Feature",
      "geometry": {
        "type": "Point",
        "coordinates": [
          133.829285,
          34.823727
        ]
      },
      "properties": {
        "city_code": "33101",
        "town_code": "275",
        "pref_name": "岡山県",
        "city_name": "岡山市北区",
        "town_name": "御津虎倉",
        "address": "岡山県岡山市北区御津虎倉"
      }
    },
    {
      "type": "Feature",
      "geometry": {
        "type": "Point",
        "coordinates": [
          133.861526,
          34.820637
        ]
      },
      "properties": {
        "city_code": "33101",
        "town_code": "276",
        "pref_name": "岡山県",
        "city_name": "岡山市北区",
        "town_name": "御津紙工",
        "address": "岡山県岡山市北区御津紙工"
      }
    },
    {
      "type": "Feature",
      "geometry": {
        "type": "Point",
        "coordinates": [
          133.914612,
          34.813931
        ]
      },
      "properties": {
        "city_code": "33101",
        "town_code": "277",
        "pref_name": "岡山県",
        "city_name": "岡山市北区",
        "town_name": "御津下田",
        "address": "岡山県岡山市北区御津下田"
      }
    },
    {
      "type": "Feature",
      "geometry": {
        "type": "Point",
        "coordinates": [
          133.964066,
          34.821075
        ]
      },
      "properties": {
        "city_code": "33101",
        "town_code": "278",
        "pref_name": "岡山県",
        "city_name": "岡山市北区",
        "town_name": "御津新庄",
        "address": "岡山県岡山市北区御津新庄"
      }
    },
    {
      "type": "Feature",
      "geometry": {
        "type": "Point",
        "coordinates": [
          133.901672,
          34.802212
        ]
      },
      "properties": {
        "city_code": "33101",
        "town_code": "279",
        "pref_name": "岡山県",
        "city_name": "岡山市北区",
        "town_name": "御津高津",
        "address": "岡山県岡山市北区御津高津"
      }
    },
    {
      "type": "Feature",
      "geometry": {
        "type": "Point",
        "coordinates": [
          133.919632,
          34.676075
        ]
      },
      "properties": {
        "city_code": "33101",
        "town_code": "28",
        "pref_name": "岡山県",
        "city_name": "岡山市北区",
        "town_name": "絵図町",
        "address": "岡山県岡山市北区絵図町"
      }
    },
    {
      "type": "Feature",
      "geometry": {
        "type": "Point",
        "coordinates": [
          133.892014,
          34.817684
        ]
      },
      "properties": {
        "city_code": "33101",
        "town_code": "280",
        "pref_name": "岡山県",
        "city_name": "岡山市北区",
        "town_name": "御津中泉",
        "address": "岡山県岡山市北区御津中泉"
      }
    },
    {
      "type": "Feature",
      "geometry": {
        "type": "Point",
        "coordinates": [
          133.985199,
          34.845539
        ]
      },
      "properties": {
        "city_code": "33101",
        "town_code": "281",
        "pref_name": "岡山県",
        "city_name": "岡山市北区",
        "town_name": "御津中畑",
        "address": "岡山県岡山市北区御津中畑"
      }
    },
    {
      "type": "Feature",
      "geometry": {
        "type": "Point",
        "coordinates": [
          133.921616,
          34.752655
        ]
      },
      "properties": {
        "city_code": "33101",
        "town_code": "283",
        "pref_name": "岡山県",
        "city_name": "岡山市北区",
        "town_name": "御津中山",
        "address": "岡山県岡山市北区御津中山"
      }
    },
    {
      "type": "Feature",
      "geometry": {
        "type": "Point",
        "coordinates": [
          133.931961,
          34.766865
        ]
      },
      "properties": {
        "city_code": "33101",
        "town_code": "284",
        "pref_name": "岡山県",
        "city_name": "岡山市北区",
        "town_name": "御津野々口",
        "address": "岡山県岡山市北区御津野々口"
      }
    },
    {
      "type": "Feature",
      "geometry": {
        "type": "Point",
        "coordinates": [
          133.968399,
          34.831348
        ]
      },
      "properties": {
        "city_code": "33101",
        "town_code": "285",
        "pref_name": "岡山県",
        "city_name": "岡山市北区",
        "town_name": "御津平岡西",
        "address": "岡山県岡山市北区御津平岡西"
      }
    },
    {
      "type": "Feature",
      "geometry": {
        "type": "Point",
        "coordinates": [
          133.980637,
          34.829758
        ]
      },
      "properties": {
        "city_code": "33101",
        "town_code": "286",
        "pref_name": "岡山県",
        "city_name": "岡山市北区",
        "town_name": "御津矢知",
        "address": "岡山県岡山市北区御津矢知"
      }
    },
    {
      "type": "Feature",
      "geometry": {
        "type": "Point",
        "coordinates": [
          133.940826,
          34.801937
        ]
      },
      "properties": {
        "city_code": "33101",
        "town_code": "287",
        "pref_name": "岡山県",
        "city_name": "岡山市北区",
        "town_name": "御津矢原",
        "address": "岡山県岡山市北区御津矢原"
      }
    },
    {
      "type": "Feature",
      "geometry": {
        "type": "Point",
        "coordinates": [
          133.917633,
          34.762482
        ]
      },
      "properties": {
        "city_code": "33101",
        "town_code": "288",
        "pref_name": "岡山県",
        "city_name": "岡山市北区",
        "town_name": "御津吉尾",
        "address": "岡山県岡山市北区御津吉尾"
      }
    },
    {
      "type": "Feature",
      "geometry": {
        "type": "Point",
        "coordinates": [
          133.805313,
          34.742893
        ]
      },
      "properties": {
        "city_code": "33101",
        "town_code": "29",
        "pref_name": "岡山県",
        "city_name": "岡山市北区",
        "town_name": "大井",
        "address": "岡山県岡山市北区大井"
      }
    },
    {
      "type": "Feature",
      "geometry": {
        "type": "Point",
        "coordinates": [
          133.812088,
          34.68763
        ]
      },
      "properties": {
        "city_code": "33101",
        "town_code": "290",
        "pref_name": "岡山県",
        "city_name": "岡山市北区",
        "town_name": "三手",
        "address": "岡山県岡山市北区三手"
      }
    },
    {
      "type": "Feature",
      "geometry": {
        "type": "Point",
        "coordinates": [
          133.923935,
          34.672207
        ]
      },
      "properties": {
        "city_code": "33101",
        "town_code": "292",
        "pref_name": "岡山県",
        "city_name": "岡山市北区",
        "town_name": "南方一丁目",
        "address": "岡山県岡山市北区南方一丁目"
      }
    },
    {
      "type": "Feature",
      "geometry": {
        "type": "Point",
        "coordinates": [
          133.924561,
          34.655357
        ]
      },
      "properties": {
        "city_code": "33101",
        "town_code": "293",
        "pref_name": "岡山県",
        "city_name": "岡山市北区",
        "town_name": "南中央町",
        "address": "岡山県岡山市北区南中央町"
      }
    },
    {
      "type": "Feature",
      "geometry": {
        "type": "Point",
        "coordinates": [
          133.936905,
          34.688461
        ]
      },
      "properties": {
        "city_code": "33101",
        "town_code": "294",
        "pref_name": "岡山県",
        "city_name": "岡山市北区",
        "town_name": "三野一丁目",
        "address": "岡山県岡山市北区三野一丁目"
      }
    },
    {
      "type": "Feature",
      "geometry": {
        "type": "Point",
        "coordinates": [
          133.937576,
          34.696228
        ]
      },
      "properties": {
        "city_code": "33101",
        "town_code": "295",
        "pref_name": "岡山県",
        "city_name": "岡山市北区",
        "town_name": "三野本町",
        "address": "岡山県岡山市北区三野本町"
      }
    },
    {
      "type": "Feature",
      "geometry": {
        "type": "Point",
        "coordinates": [
          133.97438,
          34.732864
        ]
      },
      "properties": {
        "city_code": "33101",
        "town_code": "296",
        "pref_name": "岡山県",
        "city_name": "岡山市北区",
        "town_name": "牟佐",
        "address": "岡山県岡山市北区牟佐"
      }
    },
    {
      "type": "Feature",
      "geometry": {
        "type": "Point",
        "coordinates": [
          133.807343,
          34.698235
        ]
      },
      "properties": {
        "city_code": "33101",
        "town_code": "297",
        "pref_name": "岡山県",
        "city_name": "岡山市北区",
        "town_name": "門前",
        "address": "岡山県岡山市北区門前"
      }
    },
    {
      "type": "Feature",
      "geometry": {
        "type": "Point",
        "coordinates": [
          133.877045,
          34.672787
        ]
      },
      "properties": {
        "city_code": "33101",
        "town_code": "298",
        "pref_name": "岡山県",
        "city_name": "岡山市北区",
        "town_name": "矢坂西町",
        "address": "岡山県岡山市北区矢坂西町"
      }
    },
    {
      "type": "Feature",
      "geometry": {
        "type": "Point",
        "coordinates": [
          133.887634,
          34.674419
        ]
      },
      "properties": {
        "city_code": "33101",
        "town_code": "299",
        "pref_name": "岡山県",
        "city_name": "岡山市北区",
        "town_name": "矢坂東町",
        "address": "岡山県岡山市北区矢坂東町"
      }
    },
    {
      "type": "Feature",
      "geometry": {
        "type": "Point",
        "coordinates": [
          133.929932,
          34.643475
        ]
      },
      "properties": {
        "city_code": "33101",
        "town_code": "3",
        "pref_name": "岡山県",
        "city_name": "岡山市北区",
        "town_name": "旭本町",
        "address": "岡山県岡山市北区旭本町"
      }
    },
    {
      "type": "Feature",
      "geometry": {
        "type": "Point",
        "coordinates": [
          133.839691,
          34.626789
        ]
      },
      "properties": {
        "city_code": "33101",
        "town_code": "30",
        "pref_name": "岡山県",
        "city_name": "岡山市北区",
        "town_name": "大内田",
        "address": "岡山県岡山市北区大内田"
      }
    },
    {
      "type": "Feature",
      "geometry": {
        "type": "Point",
        "coordinates": [
          133.883102,
          34.673412
        ]
      },
      "properties": {
        "city_code": "33101",
        "town_code": "300",
        "pref_name": "岡山県",
        "city_name": "岡山市北区",
        "town_name": "矢坂本町",
        "address": "岡山県岡山市北区矢坂本町"
      }
    },
    {
      "type": "Feature",
      "geometry": {
        "type": "Point",
        "coordinates": [
          133.921051,
          34.659386
        ]
      },
      "properties": {
        "city_code": "33101",
        "town_code": "301",
        "pref_name": "岡山県",
        "city_name": "岡山市北区",
        "town_name": "柳町一丁目",
        "address": "岡山県岡山市北区柳町一丁目"
      }
    },
    {
      "type": "Feature",
      "geometry": {
        "type": "Point",
        "coordinates": [
          133.926468,
          34.679554
        ]
      },
      "properties": {
        "city_code": "33101",
        "town_code": "303",
        "pref_name": "岡山県",
        "city_name": "岡山市北区",
        "town_name": "大和町一丁目",
        "address": "岡山県岡山市北区大和町一丁目"
      }
    },
    {
      "type": "Feature",
      "geometry": {
        "type": "Point",
        "coordinates": [
          133.849945,
          34.784996
        ]
      },
      "properties": {
        "city_code": "33101",
        "town_code": "304",
        "pref_name": "岡山県",
        "city_name": "岡山市北区",
        "town_name": "山上",
        "address": "岡山県岡山市北区山上"
      }
    },
    {
      "type": "Feature",
      "geometry": {
        "type": "Point",
        "coordinates": [
          133.92865,
          34.670116
        ]
      },
      "properties": {
        "city_code": "33101",
        "town_code": "305",
        "pref_name": "岡山県",
        "city_name": "岡山市北区",
        "town_name": "弓之町",
        "address": "岡山県岡山市北区弓之町"
      }
    },
    {
      "type": "Feature",
      "geometry": {
        "type": "Point",
        "coordinates": [
          133.912018,
          34.711456
        ]
      },
      "properties": {
        "city_code": "33101",
        "town_code": "306",
        "pref_name": "岡山県",
        "city_name": "岡山市北区",
        "town_name": "横井上",
        "address": "岡山県岡山市北区横井上"
      }
    },
    {
      "type": "Feature",
      "geometry": {
        "type": "Point",
        "coordinates": [
          133.828537,
          34.727318
        ]
      },
      "properties": {
        "city_code": "33101",
        "town_code": "307",
        "pref_name": "岡山県",
        "city_name": "岡山市北区",
        "town_name": "横尾",
        "address": "岡山県岡山市北区横尾"
      }
    },
    {
      "type": "Feature",
      "geometry": {
        "type": "Point",
        "coordinates": [
          133.813736,
          34.76511
        ]
      },
      "properties": {
        "city_code": "33101",
        "town_code": "308",
        "pref_name": "岡山県",
        "city_name": "岡山市北区",
        "town_name": "吉",
        "address": "岡山県岡山市北区吉"
      }
    },
    {
      "type": "Feature",
      "geometry": {
        "type": "Point",
        "coordinates": [
          133.908829,
          34.734447
        ]
      },
      "properties": {
        "city_code": "33101",
        "town_code": "309",
        "pref_name": "岡山県",
        "city_name": "岡山市北区",
        "town_name": "吉宗",
        "address": "岡山県岡山市北区吉宗"
      }
    },
    {
      "type": "Feature",
      "geometry": {
        "type": "Point",
        "coordinates": [
          133.849854,
          34.69672
        ]
      },
      "properties": {
        "city_code": "33101",
        "town_code": "31",
        "pref_name": "岡山県",
        "city_name": "岡山市北区",
        "town_name": "大窪",
        "address": "岡山県岡山市北区大窪"
      }
    },
    {
      "type": "Feature",
      "geometry": {
        "type": "Point",
        "coordinates": [
          133.92836,
          34.696747
        ]
      },
      "properties": {
        "city_code": "33101",
        "town_code": "310",
        "pref_name": "岡山県",
        "city_name": "岡山市北区",
        "town_name": "理大町",
        "address": "岡山県岡山市北区理大町"
      }
    },
    {
      "type": "Feature",
      "geometry": {
        "type": "Point",
        "coordinates": [
          133.824829,
          34.705017
        ]
      },
      "properties": {
        "city_code": "33101",
        "town_code": "311",
        "pref_name": "岡山県",
        "city_name": "岡山市北区",
        "town_name": "和井元",
        "address": "岡山県岡山市北区和井元"
      }
    },
    {
      "type": "Feature",
      "geometry": {
        "type": "Point",
        "coordinates": [
          133.817169,
          34.705643
        ]
      },
      "properties": {
        "city_code": "33101",
        "town_code": "32",
        "pref_name": "岡山県",
        "city_name": "岡山市北区",
        "town_name": "大崎",
        "address": "岡山県岡山市北区大崎"
      }
    },
    {
      "type": "Feature",
      "geometry": {
        "type": "Point",
        "coordinates": [
          133.903641,
          34.645802
        ]
      },
      "properties": {
        "city_code": "33101",
        "town_code": "33",
        "pref_name": "岡山県",
        "city_name": "岡山市北区",
        "town_name": "大元一丁目",
        "address": "岡山県岡山市北区大元一丁目"
      }
    },
    {
      "type": "Feature",
      "geometry": {
        "type": "Point",
        "coordinates": [
          133.911819,
          34.645954
        ]
      },
      "properties": {
        "city_code": "33101",
        "town_code": "34",
        "pref_name": "岡山県",
        "city_name": "岡山市北区",
        "town_name": "大元駅前",
        "address": "岡山県岡山市北区大元駅前"
      }
    },
    {
      "type": "Feature",
      "geometry": {
        "type": "Point",
        "coordinates": [
          133.900436,
          34.648701
        ]
      },
      "properties": {
        "city_code": "33101",
        "town_code": "35",
        "pref_name": "岡山県",
        "city_name": "岡山市北区",
        "town_name": "大元上町",
        "address": "岡山県岡山市北区大元上町"
      }
    },
    {
      "type": "Feature",
      "geometry": {
        "type": "Point",
        "coordinates": [
          133.92244,
          34.649483
        ]
      },
      "properties": {
        "city_code": "33101",
        "town_code": "36",
        "pref_name": "岡山県",
        "city_name": "岡山市北区",
        "town_name": "岡町",
        "address": "岡山県岡山市北区岡町"
      }
    },
    {
      "type": "Feature",
      "geometry": {
        "type": "Point",
        "coordinates": [
          133.924072,
          34.645622
        ]
      },
      "properties": {
        "city_code": "33101",
        "town_code": "37",
        "pref_name": "岡山県",
        "city_name": "岡山市北区",
        "town_name": "奥田一丁目",
        "address": "岡山県岡山市北区奥田一丁目"
      }
    },
    {
      "type": "Feature",
      "geometry": {
        "type": "Point",
        "coordinates": [
          133.917709,
          34.643208
        ]
      },
      "properties": {
        "city_code": "33101",
        "town_code": "38",
        "pref_name": "岡山県",
        "city_name": "岡山市北区",
        "town_name": "奥田西町",
        "address": "岡山県岡山市北区奥田西町"
      }
    },
    {
      "type": "Feature",
      "geometry": {
        "type": "Point",
        "coordinates": [
          133.921356,
          34.645947
        ]
      },
      "properties": {
        "city_code": "33101",
        "town_code": "39",
        "pref_name": "岡山県",
        "city_name": "岡山市北区",
        "town_name": "奥田本町",
        "address": "岡山県岡山市北区奥田本町"
      }
    },
    {
      "type": "Feature",
      "geometry": {
        "type": "Point",
        "coordinates": [
          133.927734,
          34.646187
        ]
      },
      "properties": {
        "city_code": "33101",
        "town_code": "4",
        "pref_name": "岡山県",
        "city_name": "岡山市北区",
        "town_name": "旭町",
        "address": "岡山県岡山市北区旭町"
      }
    },
    {
      "type": "Feature",
      "geometry": {
        "type": "Point",
        "coordinates": [
          133.921844,
          34.641663
        ]
      },
      "properties": {
        "city_code": "33101",
        "town_code": "40",
        "pref_name": "岡山県",
        "city_name": "岡山市北区",
        "town_name": "奥田南町",
        "address": "岡山県岡山市北区奥田南町"
      }
    },
    {
      "type": "Feature",
      "geometry": {
        "type": "Point",
        "coordinates": [
          133.865524,
          34.665607
        ]
      },
      "properties": {
        "city_code": "33101",
        "town_code": "41",
        "pref_name": "岡山県",
        "city_name": "岡山市北区",
        "town_name": "尾上",
        "address": "岡山県岡山市北区尾上"
      }
    },
    {
      "type": "Feature",
      "geometry": {
        "type": "Point",
        "coordinates": [
          133.934464,
          34.637791
        ]
      },
      "properties": {
        "city_code": "33101",
        "town_code": "42",
        "pref_name": "岡山県",
        "city_name": "岡山市北区",
        "town_name": "御舟入町",
        "address": "岡山県岡山市北区御舟入町"
      }
    },
    {
      "type": "Feature",
      "geometry": {
        "type": "Point",
        "coordinates": [
          133.929504,
          34.66399
        ]
      },
      "properties": {
        "city_code": "33101",
        "town_code": "43",
        "pref_name": "岡山県",
        "city_name": "岡山市北区",
        "town_name": "表町一丁目",
        "address": "岡山県岡山市北区表町一丁目"
      }
    },
    {
      "type": "Feature",
      "geometry": {
        "type": "Point",
        "coordinates": [
          133.92009,
          34.728893
        ]
      },
      "properties": {
        "city_code": "33101",
        "town_code": "44",
        "pref_name": "岡山県",
        "city_name": "岡山市北区",
        "town_name": "栢谷",
        "address": "岡山県岡山市北区栢谷"
      }
    },
    {
      "type": "Feature",
      "geometry": {
        "type": "Point",
        "coordinates": [
          133.922882,
          34.679558
        ]
      },
      "properties": {
        "city_code": "33101",
        "town_code": "45",
        "pref_name": "岡山県",
        "city_name": "岡山市北区",
        "town_name": "学南町一丁目",
        "address": "岡山県岡山市北区学南町一丁目"
      }
    },
    {
      "type": "Feature",
      "geometry": {
        "type": "Point",
        "coordinates": [
          133.921478,
          34.653835
        ]
      },
      "properties": {
        "city_code": "33101",
        "town_code": "47",
        "pref_name": "岡山県",
        "city_name": "岡山市北区",
        "town_name": "春日町",
        "address": "岡山県岡山市北区春日町"
      }
    },
    {
      "type": "Feature",
      "geometry": {
        "type": "Point",
        "coordinates": [
          133.947403,
          34.735752
        ]
      },
      "properties": {
        "city_code": "33101",
        "town_code": "48",
        "pref_name": "岡山県",
        "city_name": "岡山市北区",
        "town_name": "金山寺",
        "address": "岡山県岡山市北区金山寺"
      }
    },
    {
      "type": "Feature",
      "geometry": {
        "type": "Point",
        "coordinates": [
          133.831451,
          34.784046
        ]
      },
      "properties": {
        "city_code": "33101",
        "town_code": "49",
        "pref_name": "岡山県",
        "city_name": "岡山市北区",
        "town_name": "上高田",
        "address": "岡山県岡山市北区上高田"
      }
    },
    {
      "type": "Feature",
      "geometry": {
        "type": "Point",
        "coordinates": [
          133.803345,
          34.72929
        ]
      },
      "properties": {
        "city_code": "33101",
        "town_code": "5",
        "pref_name": "岡山県",
        "city_name": "岡山市北区",
        "town_name": "足守",
        "address": "岡山県岡山市北区足守"
      }
    },
    {
      "type": "Feature",
      "geometry": {
        "type": "Point",
        "coordinates": [
          133.808502,
          34.70816
        ]
      },
      "properties": {
        "city_code": "33101",
        "town_code": "50",
        "pref_name": "岡山県",
        "city_name": "岡山市北区",
        "town_name": "上土田",
        "address": "岡山県岡山市北区上土田"
      }
    },
    {
      "type": "Feature",
      "geometry": {
        "type": "Point",
        "coordinates": [
          133.900574,
          34.645584
        ]
      },
      "properties": {
        "city_code": "33101",
        "town_code": "51",
        "pref_name": "岡山県",
        "city_name": "岡山市北区",
        "town_name": "上中野一丁目",
        "address": "岡山県岡山市北区上中野一丁目"
      }
    },
    {
      "type": "Feature",
      "geometry": {
        "type": "Point",
        "coordinates": [
          133.830048,
          34.675297
        ]
      },
      "properties": {
        "city_code": "33101",
        "town_code": "52",
        "pref_name": "岡山県",
        "city_name": "岡山市北区",
        "town_name": "加茂",
        "address": "岡山県岡山市北区加茂"
      }
    },
    {
      "type": "Feature",
      "geometry": {
        "type": "Point",
        "coordinates": [
          133.865005,
          34.687
        ]
      },
      "properties": {
        "city_code": "33101",
        "town_code": "53",
        "pref_name": "岡山県",
        "city_name": "岡山市北区",
        "town_name": "辛川市場",
        "address": "岡山県岡山市北区辛川市場"
      }
    },
    {
      "type": "Feature",
      "geometry": {
        "type": "Point",
        "coordinates": [
          133.845337,
          34.658714
        ]
      },
      "properties": {
        "city_code": "33101",
        "town_code": "54",
        "pref_name": "岡山県",
        "city_name": "岡山市北区",
        "town_name": "川入",
        "address": "岡山県岡山市北区川入"
      }
    },
    {
      "type": "Feature",
      "geometry": {
        "type": "Point",
        "coordinates": [
          133.899277,
          34.672123
        ]
      },
      "properties": {
        "city_code": "33101",
        "town_code": "56",
        "pref_name": "岡山県",
        "city_name": "岡山市北区",
        "town_name": "関西町",
        "address": "岡山県岡山市北区関西町"
      }
    },
    {
      "type": "Feature",
      "geometry": {
        "type": "Point",
        "coordinates": [
          133.92009,
          34.639935
        ]
      },
      "properties": {
        "city_code": "33101",
        "town_code": "57",
        "pref_name": "岡山県",
        "city_name": "岡山市北区",
        "town_name": "神田町一丁目",
        "address": "岡山県岡山市北区神田町一丁目"
      }
    },
    {
      "type": "Feature",
      "geometry": {
        "type": "Point",
        "coordinates": [
          133.958115,
          34.708549
        ]
      },
      "properties": {
        "city_code": "33101",
        "town_code": "58",
        "pref_name": "岡山県",
        "city_name": "岡山市北区",
        "town_name": "祇園",
        "address": "岡山県岡山市北区祇園"
      }
    },
    {
      "type": "Feature",
      "geometry": {
        "type": "Point",
        "coordinates": [
          133.93013,
          34.686188
        ]
      },
      "properties": {
        "city_code": "33101",
        "town_code": "59",
        "pref_name": "岡山県",
        "city_name": "岡山市北区",
        "town_name": "北方一丁目",
        "address": "岡山県岡山市北区北方一丁目"
      }
    },
    {
      "type": "Feature",
      "geometry": {
        "type": "Point",
        "coordinates": [
          133.928802,
          34.655193
        ]
      },
      "properties": {
        "city_code": "33101",
        "town_code": "6",
        "pref_name": "岡山県",
        "city_name": "岡山市北区",
        "town_name": "天瀬",
        "address": "岡山県岡山市北区天瀬"
      }
    },
    {
      "type": "Feature",
      "geometry": {
        "type": "Point",
        "coordinates": [
          133.879074,
          34.650814
        ]
      },
      "properties": {
        "city_code": "33101",
        "town_code": "60",
        "pref_name": "岡山県",
        "city_name": "岡山市北区",
        "town_name": "北長瀬",
        "address": "岡山県岡山市北区北長瀬"
      }
    },
    {
      "type": "Feature",
      "geometry": {
        "type": "Point",
        "coordinates": [
          133.892578,
          34.653645
        ]
      },
      "properties": {
        "city_code": "33101",
        "town_code": "61",
        "pref_name": "岡山県",
        "city_name": "岡山市北区",
        "town_name": "北長瀬表町一丁目",
        "address": "岡山県岡山市北区北長瀬表町一丁目"
      }
    },
    {
      "type": "Feature",
      "geometry": {
        "type": "Point",
        "coordinates": [
          133.886124,
          34.655975
        ]
      },
      "properties": {
        "city_code": "33101",
        "town_code": "62",
        "pref_name": "岡山県",
        "city_name": "岡山市北区",
        "town_name": "北長瀬本町",
        "address": "岡山県岡山市北区北長瀬本町"
      }
    },
    {
      "type": "Feature",
      "geometry": {
        "type": "Point",
        "coordinates": [
          133.845688,
          34.673664
        ]
      },
      "properties": {
        "city_code": "33101",
        "town_code": "63",
        "pref_name": "岡山県",
        "city_name": "岡山市北区",
        "town_name": "吉備津",
        "address": "岡山県岡山市北区吉備津"
      }
    },
    {
      "type": "Feature",
      "geometry": {
        "type": "Point",
        "coordinates": [
          133.931717,
          34.657799
        ]
      },
      "properties": {
        "city_code": "33101",
        "town_code": "64",
        "pref_name": "岡山県",
        "city_name": "岡山市北区",
        "town_name": "京橋町",
        "address": "岡山県岡山市北区京橋町"
      }
    },
    {
      "type": "Feature",
      "geometry": {
        "type": "Point",
        "coordinates": [
          133.931046,
          34.65493
        ]
      },
      "properties": {
        "city_code": "33101",
        "town_code": "65",
        "pref_name": "岡山県",
        "city_name": "岡山市北区",
        "town_name": "京橋南町",
        "address": "岡山県岡山市北区京橋南町"
      }
    },
    {
      "type": "Feature",
      "geometry": {
        "type": "Point",
        "coordinates": [
          133.924545,
          34.653595
        ]
      },
      "properties": {
        "city_code": "33101",
        "town_code": "66",
        "pref_name": "岡山県",
        "city_name": "岡山市北区",
        "town_name": "京町",
        "address": "岡山県岡山市北区京町"
      }
    },
    {
      "type": "Feature",
      "geometry": {
        "type": "Point",
        "coordinates": [
          133.906128,
          34.672878
        ]
      },