{
"type": "FeatureCollection",
"name": "zone_coords",
"crs": { "type": "name", "properties": { "name": "urn:ogc:def:crs:OGC:1.3:CRS84" } },
"features": [
{ "type": "Feature", "properties": { "zone_key": "33101001", "city_code": "33101", "town_code": "001", "pref_name": "岡山県", "city_name": "岡山市北区", "town_name": "葵町", "lat": 34.669568267866083, "lon": 133.89912200063449 }, "geometry": { "type": "Point", "coordinates": [ 133.899122000634492, 34.669568267866083 ] } },
{ "type": "Feature", "properties": { "zone_key": "33101002", "city_code": "33101", "town_code": "002", "pref_name": "岡山県", "city_name": "岡山市北区", "town_name": "青江一丁目", "lat": 34.632753610608063, "lon": 133.92129442088759 }, "geometry": { "type": "Point", "coordinates": [ 133.921294420887591, 34.632753610608063 ] } },
{ "type": "Feature", "properties": { "zone_key": "33101003", "city_code": "33101", "town_code": "003", "pref_name": "岡山県", "city_name": "岡山市北区", "town_name": "旭本町", "lat": 34.643250195868006, "lon": 133.92991125469715 }, "geometry": { "type": "Point", "coordinates": [ 133.929911254697146, 34.643250195868006 ] } },
{ "type": "Feature", "properties": { "zone_key": "33101004", "city_code": "33101", "town_code": "004", "pref_name": "岡山県", "city_name": "岡山市北区", "town_name": "旭町", "lat": 34.646866378283939, "lon": 133.92739205591346 }, "geometry": { "type": "Point", "coordinates": [ 133.927392055913458, 34.646866378283939 ] } },
{ "type": "Feature", "properties": { "zone_key": "33101005", "city_code": "33101", "town_code": "005", "pref_name": "岡山県", "city_name": "岡山市北区", "town_name": "足守", "lat": 34.730589407459433, "lon": 133.8065075104594 }, "geometry": { "type": "Point", "coordinates": [ 133.806507510459397, 34.730589407459433 ] } },
{ "type": "Feature", "properties": { "zone_key": "33101006", "city_code": "33101", "town_code": "006", "pref_name": "岡山県", "city_name": "岡山市北区", "town_name": "天瀬", "lat": 34.653994015702693, "lon": 133.92853118009398 }, "geometry": { "type": "Point", "coordinates": [ 133.928531180093984, 34.653994015702693 ] } },
{ "type": "Feature", "properties": { "zone_key": "33101007", "city_code": "33101", "town_code": "007", "pref_name": "岡山県", "city_name": "岡山市北区", "town_name": "天瀬南町", "lat": 34.652752782379025, "lon": 133.9283102967274 }, "geometry": { "type": "Point", "coordinates": [ 133.928310296727403, 34.652752782379025 ] } },
{ "type": "Feature", "properties": { "zone_key": "33101008", "city_code": "33101", "town_code": "008", "pref_name": "岡山県", "city_name": "岡山市北区", "town_name": "粟井", "lat": 34.753045038665654, "lon": 133.77730041539394 }, "geometry": { "type": "Point", "coordinates": [ 133.777300415393938, 34.753045038665654 ] } },
{ "type": "Feature", "properties": { "zone_key": "33101009", "city_code": "33101", "town_code": "009", "pref_name": "岡山県", "city_name": "岡山市北区", "town_name": "石関町", "lat": 34.666805298664414, "lon": 133.93188557857425 }, "geometry": { "type": "Point", "coordinates": [ 133.931885578574253, 34.666805298664414 ] } },
{ "type": "Feature", "properties": { "zone_key": "33101010", "city_code": "33101", "town_code": "010", "pref_name": "岡山県", "city_name": "岡山市北区", "town_name": "石妻", "lat": 34.76918808312513, "lon": 133.84799395873637 }, "geometry": { "type": "Point", "coordinates": [ 133.847993958736367, 34.76918808312513 ] } },
{ "type": "Feature", "properties": { "zone_key": "33101011", "city_code": "33101", "town_code": "011", "pref_name": "岡山県", "city_name": "岡山市北区", "town_name": "伊島北町", "lat": 34.680837262424561, "lon": 133.9049972982933 }, "geometry": { "type": "Point", "coordinates": [ 133.904997298293296, 34.680837262424561 ] } },
{ "type": "Feature", "properties": { "zone_key": "33101012", "city_code": "33101", "town_code": "012", "pref_name": "岡山県", "city_name": "岡山市北区", "town_name": "伊島町一丁目", "lat": 34.678260523718208, "lon": 133.90915971566253 }, "geometry": { "type": "Point", "coordinates": [ 133.909159715662526, 34.678260523718208 ] } },
{ "type": "Feature", "properties": { "zone_key": "33101013", "city_code": "33101", "town_code": "013", "pref_name": "岡山県", "city_name": "岡山市北区", "town_name": "出石町一丁目", "lat": 34.671281463405307, "lon": 133.93144171220305 }, "geometry": { "type": "Point", "coordinates": [ 133.931441712203053, 34.671281463405307 ] } },
{ "type": "Feature", "properties": { "zone_key": "33101014", "city_code": "33101", "town_code": "014", "pref_name": "岡山県", "city_name": "岡山市北区", "town_name": "いずみ町", "lat": 34.678810037132138, "lon": 133.91666315514237 }, "geometry": { "type": "Point", "coordinates": [ 133.916663155142373, 34.678810037132138 ] } },
{ "type": "Feature", "properties": { "zone_key": "33101015", "city_code": "33101", "town_code": "015", "pref_name": "岡山県", "city_name": "岡山市北区", "town_name": "一宮", "lat": 34.677299424764151, "lon": 133.8679517987816 }, "geometry": { "type": "Point", "coordinates": [ 133.867951798781604, 34.677299424764151 ] } },
{ "type": "Feature", "properties": { "zone_key": "33101016", "city_code": "33101", "town_code": "016", "pref_name": "岡山県", "city_name": "岡山市北区", "town_name": "一宮山崎", "lat": 34.683603968994113, "lon": 133.8743643964593 }, "geometry": { "type": "Point", "coordinates": [ 133.874364396459299, 34.683603968994113 ] } },
{ "type": "Feature", "properties": { "zone_key": "33101017", "city_code": "33101", "town_code": "017", "pref_name": "岡山県", "city_name": "岡山市北区", "town_name": "伊福町一丁目", "lat": 34.672800436916575, "lon": 133.91343289191673 }, "geometry": { "type": "Point", "coordinates": [ 133.913432891916727, 34.672800436916575 ] } },
{ "type": "Feature", "properties": { "zone_key": "33101018", "city_code": "33101", "town_code": "018", "pref_name": "岡山県", "city_name": "岡山市北区", "town_name": "今一丁目", "lat": 34.64472159715725, "lon": 133.89460494416889 }, "geometry": { "type": "Point", "coordinates": [ 133.89460494416889, 34.64472159715725 ] } },
{ "type": "Feature", "properties": { "zone_key": "33101019", "city_code": "33101", "town_code": "019", "pref_name": "岡山県", "city_name": "岡山市北区", "town_name": "今岡", "lat": 34.6899359209499, "lon": 133.87126560140652 }, "geometry": { "type": "Point", "coordinates": [ 133.87126560140652, 34.6899359209499 ] } },
{ "type": "Feature", "properties": { "zone_key": "33101020", "city_code": "33101", "town_code": "020", "pref_name": "岡山県", "city_name": "岡山市北区", "town_name": "今保", "lat": 34.637684144029208, "lon": 133.87313436449219 }, "geometry": { "type": "Point", "coordinates": [ 133.873134364492188, 34.637684144029208 ] } },
{ "type": "Feature", "properties": { "zone_key": "33101021", "city_code": "33101", "town_code": "021", "pref_name": "岡山県", "city_name": "岡山市北区", "town_name": "今村", "lat": 34.639664465467973, "lon": 133.89625388852551 }, "geometry": { "type": "Point", "coordinates": [ 133.896253888525507, 34.639664465467973 ] } },
{ "type": "Feature", "properties": { "zone_key": "33101022", "city_code": "33101", "town_code": "022", "pref_name": "岡山県", "city_name": "岡山市北区", "town_name": "岩井一丁目", "lat": 34.671516312430448, "lon": 133.8956847514863 }, "geometry": { "type": "Point", "coordinates": [ 133.8956847514863, 34.671516312430448 ] } },
{ "type": "Feature", "properties": { "zone_key": "33101023", "city_code": "33101", "town_code": "023", "pref_name": "岡山県", "city_name": "岡山市北区", "town_name": "岩井宮裏", "lat": 34.671823624643295, "lon": 133.90274850401798 }, "geometry": { "type": "Point", "coordinates": [ 133.902748504017978, 34.671823624643295 ] } },
{ "type": "Feature", "properties": { "zone_key": "33101024", "city_code": "33101", "town_code": "024", "pref_name": "岡山県", "city_name": "岡山市北区", "town_name": "岩田町", "lat": 34.669828176517676, "lon": 133.92153642799997 }, "geometry": { "type": "Point", "coordinates": [ 133.921536427999968, 34.669828176517676 ] } },
{ "type": "Feature", "properties": { "zone_key": "33101025", "city_code": "33101", "town_code": "025", "pref_name": "岡山県", "city_name": "岡山市北区", "town_name": "内山下一丁目", "lat": 34.660936731220417, "lon": 133.93339822749115 }, "geometry": { "type": "Point", "coordinates": [ 133.933398227491153, 34.660936731220417 ] } },
{ "type": "Feature", "properties": { "zone_key": "33101026", "city_code": "33101", "town_code": "026", "pref_name": "岡山県", "city_name": "岡山市北区", "town_name": "駅前町一丁目", "lat": 34.667063180574665, "lon": 133.92106251242316 }, "geometry": { "type": "Point", "coordinates": [ 133.921062512423163, 34.667063180574665 ] } },
{ "type": "Feature", "properties": { "zone_key": "33101027", "city_code": "33101", "town_code": "027", "pref_name": "岡山県", "city_name": "岡山市北区", "town_name": "駅元町", "lat": 34.665675149626153, "lon": 133.9167075406464 }, "geometry": { "type": "Point", "coordinates": [ 133.916707540646399, 34.665675149626153 ] } },
{ "type": "Feature", "properties": { "zone_key": "33101028", "city_code": "33101", "town_code": "028", "pref_name": "岡山県", "city_name": "岡山市北区", "town_name": "絵図町", "lat": 34.675933825088173, "lon": 133.91924849917402 }, "geometry": { "type": "Point", "coordinates": [ 133.919248499174017, 34.675933825088173 ] } },
{ "type": "Feature", "properties": { "zone_key": "33101029", "city_code": "33101", "town_code": "029", "pref_name": "岡山県", "city_name": "岡山市北区", "town_name": "大井", "lat": 34.742111956532383, "lon": 133.80336022105891 }, "geometry": { "type": "Point", "coordinates": [ 133.803360221058909, 34.742111956532383 ] } },
{ "type": "Feature", "properties": { "zone_key": "33101030", "city_code": "33101", "town_code": "030", "pref_name": "岡山県", "city_name": "岡山市北区", "town_name": "大内田", "lat": 34.628116389408881, "lon": 133.84143802034302 }, "geometry": { "type": "Point", "coordinates": [ 133.84143802034302, 34.628116389408881 ] } },
{ "type": "Feature", "properties": { "zone_key": "33101031", "city_code": "33101", "town_code": "031", "pref_name": "岡山県", "city_name": "岡山市北区", "town_name": "大窪", "lat": 34.696111247698767, "lon": 133.852599137993 }, "geometry": { "type": "Point", "coordinates": [ 133.852599137992996, 34.696111247698767 ] } },
{ "type": "Feature", "properties": { "zone_key": "33101032", "city_code": "33101", "town_code": "032", "pref_name": "岡山県", "city_name": "岡山市北区", "town_name": "大崎", "lat": 34.706026009057439, "lon": 133.81796312874121 }, "geometry": { "type": "Point", "coordinates": [ 133.817963128741212, 34.706026009057439 ] } },
{ "type": "Feature", "properties": { "zone_key": "33101033", "city_code": "33101", "town_code": "033", "pref_name": "岡山県", "city_name": "岡山市北区", "town_name": "大元一丁目", "lat": 34.644334403423876, "lon": 133.90372225290909 }, "geometry": { "type": "Point", "coordinates": [ 133.903722252909091, 34.644334403423876 ] } },
{ "type": "Feature", "properties": { "zone_key": "33101034", "city_code": "33101", "town_code": "034", "pref_name": "岡山県", "city_name": "岡山市北区", "town_name": "大元駅前", "lat": 34.646025767769942, "lon": 133.91170743624866 }, "geometry": { "type": "Point", "coordinates": [ 133.911707436248662, 34.646025767769942 ] } },
{ "type": "Feature", "properties": { "zone_key": "33101035", "city_code": "33101", "town_code": "035", "pref_name": "岡山県", "city_name": "岡山市北区", "town_name": "大元上町", "lat": 34.648669020067608, "lon": 133.90042715433486 }, "geometry": { "type": "Point", "coordinates": [ 133.900427154334864, 34.648669020067608 ] } },
{ "type": "Feature", "properties": { "zone_key": "33101036", "city_code": "33101", "town_code": "036", "pref_name": "岡山県", "city_name": "岡山市北区", "town_name": "岡町", "lat": 34.649276127684551, "lon": 133.92241279308993 }, "geometry": { "type": "Point", "coordinates": [ 133.922412793089933, 34.649276127684551 ] } },
{ "type": "Feature", "properties": { "zone_key": "33101037", "city_code": "33101", "town_code": "037", "pref_name": "岡山県", "city_name": "岡山市北区", "town_name": "奥田一丁目", "lat": 34.644150972978942, "lon": 133.92284978911755 }, "geometry": { "type": "Point", "coordinates": [ 133.922849789117549, 34.644150972978942 ] } },
{ "type": "Feature", "properties": { "zone_key": "33101038", "city_code": "33101", "town_code": "038", "pref_name": "岡山県", "city_name": "岡山市北区", "town_name": "奥田西町", "lat": 34.643201814586163, "lon": 133.91771003843866 }, "geometry": { "type": "Point", "coordinates": [ 133.917710038438656, 34.643201814586163 ] } },
{ "type": "Feature", "properties": { "zone_key": "33101039", "city_code": "33101", "town_code": "039", "pref_name": "岡山県", "city_name": "岡山市北区", "town_name": "奥田本町", "lat": 34.645974550152268, "lon": 133.92134283039624 }, "geometry": { "type": "Point", "coordinates": [ 133.921342830396242, 34.645974550152268 ] } },
{ "type": "Feature", "properties": { "zone_key": "33101040", "city_code": "33101", "town_code": "040", "pref_name": "岡山県", "city_name": "岡山市北区", "town_name": "奥田南町", "lat": 34.641557086850895, "lon": 133.92180837537109 }, "geometry": { "type": "Point", "coordinates": [ 133.921808375371086, 34.641557086850895 ] } },
{ "type": "Feature", "properties": { "zone_key": "33101041", "city_code": "33101", "town_code": "041", "pref_name": "岡山県", "city_name": "岡山市北区", "town_name": "尾上", "lat": 34.665955752102789, "lon": 133.8661353670177 }, "geometry": { "type": "Point", "coordinates": [ 133.866135367017705, 34.665955752102789 ] } },
{ "type": "Feature", "properties": { "zone_key": "33101042", "city_code": "33101", "town_code": "042", "pref_name": "岡山県", "city_name": "岡山市北区", "town_name": "御舟入町", "lat": 34.637572251838776, "lon": 133.93511053091251 }, "geometry": { "type": "Point", "coordinates": [ 133.93511053091251, 34.637572251838776 ] } },
{ "type": "Feature", "properties": { "zone_key": "33101043", "city_code": "33101", "town_code": "043", "pref_name": "岡山県", "city_name": "岡山市北区", "town_name": "表町一丁目", "lat": 34.66014839605095, "lon": 133.92900860107829 }, "geometry": { "type": "Point", "coordinates": [ 133.929008601078294, 34.66014839605095 ] } },
{ "type": "Feature", "properties": { "zone_key": "33101044", "city_code": "33101", "town_code": "044", "pref_name": "岡山県", "city_name": "岡山市北区", "town_name": "栢谷", "lat": 34.727311680684153, "lon": 133.90956281653376 }, "geometry": { "type": "Point", "coordinates": [ 133.909562816533764, 34.727311680684153 ] } },
{ "type": "Feature", "properties": { "zone_key": "33101045", "city_code": "33101", "town_code": "045", "pref_name": "岡山県", "city_name": "岡山市北区", "town_name": "学南町一丁目", "lat": 34.682414599846268, "lon": 133.92346631099048 }, "geometry": { "type": "Point", "coordinates": [ 133.923466310990477, 34.682414599846268 ] } },
{ "type": "Feature", "properties": { "zone_key": "33101046", "city_code": "33101", "town_code": "046", "pref_name": "岡山県", "city_name": "岡山市北区", "town_name": "掛畑", "lat": 34.807497438482642, "lon": 133.79811456258614 }, "geometry": { "type": "Point", "coordinates": [ 133.798114562586136, 34.807497438482642 ] } },
{ "type": "Feature", "properties": { "zone_key": "33101047", "city_code": "33101", "town_code": "047", "pref_name": "岡山県", "city_name": "岡山市北区", "town_name": "春日町", "lat": 34.653850922727926, "lon": 133.92150480366382 }, "geometry": { "type": "Point", "coordinates": [ 133.921504803663822, 34.653850922727926 ] } },
{ "type": "Feature", "properties": { "zone_key": "33101048", "city_code": "33101", "town_code": "048", "pref_name": "岡山県", "city_name": "岡山市北区", "town_name": "金山寺", "lat": 34.736854121670689, "lon": 133.94644100969046 }, "geometry": { "type": "Point", "coordinates": [ 133.94644100969046, 34.736854121670689 ] } },
{ "type": "Feature", "properties": { "zone_key": "33101049", "city_code": "33101", "town_code": "049", "pref_name": "岡山県", "city_name": "岡山市北区", "town_name": "上高田", "lat": 34.783731791310295, "lon": 133.82988601457629 }, "geometry": { "type": "Point", "coordinates": [ 133.829886014576289, 34.783731791310295 ] } },
{ "type": "Feature", "properties": { "zone_key": "33101050", "city_code": "33101", "town_code": "050", "pref_name": "岡山県", "city_name": "岡山市北区", "town_name": "上土田", "lat": 34.708047336611493, "lon": 133.80722350185033 }, "geometry": { "type": "Point", "coordinates": [ 133.807223501850331, 34.708047336611493 ] } },
{ "type": "Feature", "properties": { "zone_key": "33101051", "city_code": "33101", "town_code": "051", "pref_name": "岡山県", "city_name": "岡山市北区", "town_name": "上中野一丁目", "lat": 34.64388525169727, "lon": 133.90075061375177 }, "geometry": { "type": "Point", "coordinates": [ 133.900750613751768, 34.64388525169727 ] } },
{ "type": "Feature", "properties": { "zone_key": "33101052", "city_code": "33101", "town_code": "052", "pref_name": "岡山県", "city_name": "岡山市北区", "town_name": "加茂", "lat": 34.674814560044787, "lon": 133.82793903783195 }, "geometry": { "type": "Point", "coordinates": [ 133.827939037831953, 34.674814560044787 ] } },
{ "type": "Feature", "properties": { "zone_key": "33101053", "city_code": "33101", "town_code": "053", "pref_name": "岡山県", "city_name": "岡山市北区", "town_name": "辛川市場", "lat": 34.687466291928793, "lon": 133.86376451304969 }, "geometry": { "type": "Point", "coordinates": [ 133.863764513049688, 34.687466291928793 ] } },
{ "type": "Feature", "properties": { "zone_key": "33101054", "city_code": "33101", "town_code": "054", "pref_name": "岡山県", "city_name": "岡山市北区", "town_name": "川入", "lat": 34.658354930237699, "lon": 133.84621631345098 }, "geometry": { "type": "Point", "coordinates": [ 133.846216313450981, 34.658354930237699 ] } },
{ "type": "Feature", "properties": { "zone_key": "33101055", "city_code": "33101", "town_code": "055", "pref_name": "岡山県", "city_name": "岡山市北区", "town_name": "河原", "lat": 34.790833545642734, "lon": 133.79210758869056 }, "geometry": { "type": "Point", "coordinates": [ 133.792107588690556, 34.790833545642734 ] } },
{ "type": "Feature", "properties": { "zone_key": "33101056", "city_code": "33101", "town_code": "056", "pref_name": "岡山県", "city_name": "岡山市北区", "town_name": "関西町", "lat": 34.672176545785817, "lon": 133.89908435525538 }, "geometry": { "type": "Point", "coordinates": [ 133.899084355255383, 34.672176545785817 ] } },
{ "type": "Feature", "properties": { "zone_key": "33101057", "city_code": "33101", "town_code": "057", "pref_name": "岡山県", "city_name": "岡山市北区", "town_name": "神田町一丁目", "lat": 34.639658937924814, "lon": 133.92138312803763 }, "geometry": { "type": "Point", "coordinates": [ 133.921383128037633, 34.639658937924814 ] } },
{ "type": "Feature", "properties": { "zone_key": "33101058", "city_code": "33101", "town_code": "058", "pref_name": "岡山県", "city_name": "岡山市北区", "town_name": "祇園", "lat": 34.709413544348386, "lon": 133.95923190284191 }, "geometry": { "type": "Point", "coordinates": [ 133.959231902841907, 34.709413544348386 ] } },
{ "type": "Feature", "properties": { "zone_key": "33101059", "city_code": "33101", "town_code": "059", "pref_name": "岡山県", "city_name": "岡山市北区", "town_name": "北方一丁目", "lat": 34.687030056447291, "lon": 133.93235621921625 }, "geometry": { "type": "Point", "coordinates": [ 133.932356219216246, 34.687030056447291 ] } },
{ "type": "Feature", "properties": { "zone_key": "33101060", "city_code": "33101", "town_code": "060", "pref_name": "岡山県", "city_name": "岡山市北区", "town_name": "北長瀬", "lat": 34.654019427327889, "lon": 133.88797978365281 }, "geometry": { "type": "Point", "coordinates": [ 133.88797978365281, 34.654019427327889 ] } },
{ "type": "Feature", "properties": { "zone_key": "33101061", "city_code": "33101", "town_code": "061", "pref_name": "岡山県", "city_name": "岡山市北区", "town_name": "北長瀬表町一丁目", "lat": 34.651995552105923, "lon": 133.88795803831732 }, "geometry": { "type": "Point", "coordinates": [ 133.887958038317322, 34.651995552105923 ] } },
{ "type": "Feature", "properties": { "zone_key": "33101062", "city_code": "33101", "town_code": "062", "pref_name": "岡山県", "city_name": "岡山市北区", "town_name": "北長瀬本町", "lat": 34.656632569346691, "lon": 133.88836270392761 }, "geometry": { "type": "Point", "coordinates": [ 133.888362703927612, 34.656632569346691 ] } },
{ "type": "Feature", "properties": { "zone_key": "33101063", "city_code": "33101", "town_code": "063", "pref_name": "岡山県", "city_name": "岡山市北区", "town_name": "吉備津", "lat": 34.67242812916605, "lon": 133.84451803126652 }, "geometry": { "type": "Point", "coordinates": [ 133.844518031266517, 34.67242812916605 ] } },
{ "type": "Feature", "properties": { "zone_key": "33101064", "city_code": "33101", "town_code": "064", "pref_name": "岡山県", "city_name": "岡山市北区", "town_name": "京橋町", "lat": 34.657907944679287, "lon": 133.93179230526576 }, "geometry": { "type": "Point", "coordinates": [ 133.931792305265759, 34.657907944679287 ] } },
{ "type": "Feature", "properties": { "zone_key": "33101065", "city_code": "33101", "town_code": "065", "pref_name": "岡山県", "city_name": "岡山市北区", "town_name": "京橋南町", "lat": 34.655026376493154, "lon": 133.93103714451232 }, "geometry": { "type": "Point", "coordinates": [ 133.931037144512317, 34.655026376493154 ] } },
{ "type": "Feature", "properties": { "zone_key": "33101066", "city_code": "33101", "town_code": "066", "pref_name": "岡山県", "city_name": "岡山市北区", "town_name": "京町", "lat": 34.653747681641313, "lon": 133.92449194676891 }, "geometry": { "type": "Point", "coordinates": [ 133.92449194676891, 34.653747681641313 ] } },
{ "type": "Feature", "properties": { "zone_key": "33101067", "city_code": "33101", "town_code": "067", "pref_name": "岡山県", "city_name": "岡山市北区", "town_name": "京山一丁目", "lat": 34.674200163286045, "lon": 133.90565011789539 }, "geometry": { "type": "Point", "coordinates": [ 133.905650117895391, 34.674200163286045 ] } },
{ "type": "Feature", "properties": { "zone_key": "33101068", "city_code": "33101", "town_code": "068", "pref_name": "岡山県", "city_name": "岡山市北区", "town_name": "久米", "lat": 34.646608476562946, "lon": 133.87153278250028 }, "geometry": { "type": "Point", "coordinates": [ 133.871532782500282, 34.646608476562946 ] } },
{ "type": "Feature", "properties": { "zone_key": "33101069", "city_code": "33101", "town_code": "069", "pref_name": "岡山県", "city_name": "岡山市北区", "town_name": "桑田町", "lat": 34.659310747377042, "lon": 133.9156828132158 }, "geometry": { "type": "Point", "coordinates": [ 133.915682813215795, 34.659310747377042 ] } },
{ "type": "Feature", "properties": { "zone_key": "33101070", "city_code": "33101", "town_code": "070", "pref_name": "岡山県", "city_name": "岡山市北区", "town_name": "厚生町一丁目", "lat": 34.655694207775518, "lon": 133.9131965687815 }, "geometry": { "type": "Point", "coordinates": [ 133.913196568781501, 34.655694207775518 ] } },
{ "type": "Feature", "properties": { "zone_key": "33101071", "city_code": "33101", "town_code": "071", "pref_name": "岡山県", "city_name": "岡山市北区", "town_name": "岡南町一丁目", "lat": 34.643533543435304, "lon": 133.92618309453843 }, "geometry": { "type": "Point", "coordinates": [ 133.92618309453843, 34.643533543435304 ] } },
{ "type": "Feature", "properties": { "zone_key": "33101072", "city_code": "33101", "town_code": "072", "pref_name": "岡山県", "city_name": "岡山市北区", "town_name": "首部", "lat": 34.686175299113401, "lon": 133.89617508920338 }, "geometry": { "type": "Point", "coordinates": [ 133.896175089203382, 34.686175299113401 ] } },
{ "type": "Feature", "properties": { "zone_key": "33101073", "city_code": "33101", "town_code": "073", "pref_name": "岡山県", "city_name": "岡山市北区", "town_name": "高野尻", "lat": 34.737072431158886, "lon": 133.93430764958859 }, "geometry": { "type": "Point", "coordinates": [ 133.93430764958859, 34.737072431158886 ] } },
{ "type": "Feature", "properties": { "zone_key": "33101074", "city_code": "33101", "town_code": "074", "pref_name": "岡山県", "city_name": "岡山市北区", "town_name": "後楽園", "lat": 34.667379031984652, "lon": 133.93565342170035 }, "geometry": { "type": "Point", "coordinates": [ 133.935653421700351, 34.667379031984652 ] } },
{ "type": "Feature", "properties": { "zone_key": "33101075", "city_code": "33101", "town_code": "075", "pref_name": "岡山県", "city_name": "岡山市北区", "town_name": "国体町", "lat": 34.673019806254167, "lon": 133.92051526231043 }, "geometry": { "type": "Point", "coordinates": [ 133.920515262310431, 34.673019806254167 ] } },
{ "type": "Feature", "properties": { "zone_key": "33101076", "city_code": "33101", "town_code": "076", "pref_name": "岡山県", "city_name": "岡山市北区", "town_name": "苔山", "lat": 34.766113283221948, "lon": 133.80008706227997 }, "geometry": { "type": "Point", "coordinates": [ 133.800087062279971, 34.766113283221948 ] } },
{ "type": "Feature", "properties": { "zone_key": "33101077", "city_code": "33101", "town_code": "077", "pref_name": "岡山県", "city_name": "岡山市北区", "town_name": "寿町", "lat": 34.666963382393504, "lon": 133.91283262248089 }, "geometry": { "type": "Point", "coordinates": [ 133.912832622480892, 34.666963382393504 ] } },
{ "type": "Feature", "properties": { "zone_key": "33101078", "city_code": "33101", "town_code": "078", "pref_name": "岡山県", "city_name": "岡山市北区", "town_name": "小山", "lat": 34.6938553761279, "lon": 133.81408709313797 }, "geometry": { "type": "Point", "coordinates": [ 133.814087093137971, 34.6938553761279 ] } },
{ "type": "Feature", "properties": { "zone_key": "33101079", "city_code": "33101", "town_code": "079", "pref_name": "岡山県", "city_name": "岡山市北区", "town_name": "幸町", "lat": 34.661389945968118, "lon": 133.92090385134568 }, "geometry": { "type": "Point", "coordinates": [ 133.920903851345685, 34.661389945968118 ] } },
{ "type": "Feature", "properties": { "zone_key": "33101080", "city_code": "33101", "town_code": "080", "pref_name": "岡山県", "city_name": "岡山市北区", "town_name": "佐山", "lat": 34.702463916757679, "lon": 133.88125226887792 }, "geometry": { "type": "Point", "coordinates": [ 133.881252268877915, 34.702463916757679 ] } },
{ "type": "Feature", "properties": { "zone_key": "33101081", "city_code": "33101", "town_code": "081", "pref_name": "岡山県", "city_name": "岡山市北区", "town_name": "鹿田町一丁目", "lat": 34.651444508903573, "lon": 133.91949942228365 }, "geometry": { "type": "Point", "coordinates": [ 133.91949942228365, 34.651444508903573 ] } },
{ "type": "Feature", "properties": { "zone_key": "33101082", "city_code": "33101", "town_code": "082", "pref_name": "岡山県", "city_name": "岡山市北区", "town_name": "鹿田本町", "lat": 34.651392808871961, "lon": 133.91614054319822 }, "geometry": { "type": "Point", "coordinates": [ 133.916140543198225, 34.651392808871961 ] } },
{ "type": "Feature", "properties": { "zone_key": "33101083", "city_code": "33101", "town_code": "083", "pref_name": "岡山県", "city_name": "岡山市北区", "town_name": "島田本町一丁目", "lat": 34.661835093539999, "lon": 133.90874663458501 }, "geometry": { "type": "Point", "coordinates": [ 133.908746634585015, 34.661835093539999 ] } },
{ "type": "Feature", "properties": { "zone_key": "33101084", "city_code": "33101", "town_code": "084", "pref_name": "岡山県", "city_name": "岡山市北区", "town_name": "下足守", "lat": 34.719757240436003, "lon": 133.81329785982291 }, "geometry": { "type": "Point", "coordinates": [ 133.81329785982291, 34.719757240436003 ] } },
{ "type": "Feature", "properties": { "zone_key": "33101085", "city_code": "33101", "town_code": "085", "pref_name": "岡山県", "city_name": "岡山市北区", "town_name": "下石井一丁目", "lat": 34.660635188358384, "lon": 133.91730904465661 }, "geometry": { "type": "Point", "coordinates": [ 133.917309044656605, 34.660635188358384 ] } },
{ "type": "Feature", "properties": { "zone_key": "33101086", "city_code": "33101", "town_code": "086", "pref_name": "岡山県", "city_name": "岡山市北区", "town_name": "下伊福一丁目", "lat": 34.665175049476069, "lon": 133.90598507806268 }, "geometry": { "type": "Point", "coordinates": [ 133.905985078062685, 34.665175049476069 ] } },
{ "type": "Feature", "properties": { "zone_key": "33101087", "city_code": "33101", "town_code": "087", "pref_name": "岡山県", "city_name": "岡山市北区", "town_name": "下伊福上町", "lat": 34.667431983346653, "lon": 133.90282188524756 }, "geometry": { "type": "Point", "coordinates": [ 133.902821885247562, 34.667431983346653 ] } },
{ "type": "Feature", "properties": { "zone_key": "33101088", "city_code": "33101", "town_code": "088", "pref_name": "岡山県", "city_name": "岡山市北区", "town_name": "下伊福西町", "lat": 34.664831880587492, "lon": 133.90122898066727 }, "geometry": { "type": "Point", "coordinates": [ 133.90122898066727, 34.664831880587492 ] } },
{ "type": "Feature", "properties": { "zone_key": "33101089", "city_code": "33101", "town_code": "089", "pref_name": "岡山県", "city_name": "岡山市北区", "town_name": "下伊福本町", "lat": 34.664599867536054, "lon": 133.9036288449629 }, "geometry": { "type": "Point", "coordinates": [ 133.903628844962896, 34.664599867536054 ] } },
{ "type": "Feature", "properties": { "zone_key": "33101090", "city_code": "33101", "town_code": "090", "pref_name": "岡山県", "city_name": "岡山市北区", "town_name": "下内田町", "lat": 34.647731413809005, "lon": 133.92786225521931 }, "geometry": { "type": "Point", "coordinates": [ 133.92786225521931, 34.647731413809005 ] } },
{ "type": "Feature", "properties": { "zone_key": "33101091", "city_code": "33101", "town_code": "091", "pref_name": "岡山県", "city_name": "岡山市北区", "town_name": "下高田", "lat": 34.767750846013364, "lon": 133.82860403464665 }, "geometry": { "type": "Point", "coordinates": [ 133.828604034646645, 34.767750846013364 ] } },
{ "type": "Feature", "properties": { "zone_key": "33101092", "city_code": "33101", "town_code": "092", "pref_name": "岡山県", "city_name": "岡山市北区", "town_name": "下土田", "lat": 34.7024729576205, "lon": 133.79878001120952 }, "geometry": { "type": "Point", "coordinates": [ 133.798780011209516, 34.7024729576205 ] } },
{ "type": "Feature", "properties": { "zone_key": "33101093", "city_code": "33101", "town_code": "093", "pref_name": "岡山県", "city_name": "岡山市北区", "town_name": "下中野", "lat": 34.63883113005285, "lon": 133.90184967001355 }, "geometry": { "type": "Point", "coordinates": [ 133.901849670013547, 34.63883113005285 ] } },
{ "type": "Feature", "properties": { "zone_key": "33101094", "city_code": "33101", "town_code": "094", "pref_name": "岡山県", "city_name": "岡山市北区", "town_name": "下牧", "lat": 34.742453170374191, "lon": 133.95456600909998 }, "geometry": { "type": "Point", "coordinates": [ 133.954566009099977, 34.742453170374191 ] } },
{ "type": "Feature", "properties": { "zone_key": "33101095", "city_code": "33101", "town_code": "095", "pref_name": "岡山県", "city_name": "岡山市北区", "town_name": "宿", "lat": 34.703503941432288, "lon": 133.9305384248776 }, "geometry": { "type": "Point", "coordinates": [ 133.930538424877597, 34.703503941432288 ] } },
{ "type": "Feature", "properties": { "zone_key": "33101096", "city_code": "33101", "town_code": "096", "pref_name": "岡山県", "city_name": "岡山市北区", "town_name": "宿本町", "lat": 34.700149843525445, "lon": 133.93762880058048 }, "geometry": { "type": "Point", "coordinates": [ 133.937628800580484, 34.700149843525445 ] } },
{ "type": "Feature", "properties": { "zone_key": "33101097", "city_code": "33101", "town_code": "097", "pref_name": "岡山県", "city_name": "岡山市北区", "town_name": "庄田", "lat": 34.776888551475515, "lon": 133.80549805335448 }, "geometry": { "type": "Point", "coordinates": [ 133.805498053354484, 34.776888551475515 ] } },
{ "type": "Feature", "properties": { "zone_key": "33101098", "city_code": "33101", "town_code": "098", "pref_name": "岡山県", "city_name": "岡山市北区", "town_name": "昭和町", "lat": 34.664488940738501, "lon": 133.9128784013003 }, "geometry": { "type": "Point", "coordinates": [ 133.912878401300304, 34.664488940738501 ] } },
{ "type": "Feature", "properties": { "zone_key": "33101099", "city_code": "33101", "town_code": "099", "pref_name": "岡山県", "city_name": "岡山市北区", "town_name": "白石", "lat": 34.653136799555625, "lon": 133.87219622077379 }, "geometry": { "type": "Point", "coordinates": [ 133.872196220773787, 34.653136799555625 ] } },
{ "type": "Feature", "properties": { "zone_key": "33101100", "city_code": "33101", "town_code": "100", "pref_name": "岡山県", "city_name": "岡山市北区", "town_name": "白石西新町", "lat": 34.655153161552334, "lon": 133.86948395465487 }, "geometry": { "type": "Point", "coordinates": [ 133.869483954654868, 34.655153161552334 ] } },
{ "type": "Feature", "properties": { "zone_key": "33101101", "city_code": "33101", "town_code": "101", "pref_name": "岡山県", "city_name": "岡山市北区", "town_name": "白石東新町", "lat": 34.656622108890431, "lon": 133.87504260870188 }, "geometry": { "type": "Point", "coordinates": [ 133.875042608701875, 34.656622108890431 ] } },
{ "type": "Feature", "properties": { "zone_key": "33101102", "city_code": "33101", "town_code": "102", "pref_name": "岡山県", "city_name": "岡山市北区", "town_name": "新庄上", "lat": 34.676960323362358, "lon": 133.80258073094569 }, "geometry": { "type": "Point", "coordinates": [ 133.802580730945692, 34.676960323362358 ] } },
{ "type": "Feature", "properties": { "zone_key": "33101103", "city_code": "33101", "town_code": "103", "pref_name": "岡山県", "city_name": "岡山市北区", "town_name": "新庄下", "lat": 34.672013064929672, "lon": 133.80790453446178 }, "geometry": { "type": "Point", "coordinates": [ 133.807904534461784, 34.672013064929672 ] } },
{ "type": "Feature", "properties": { "zone_key": "33101104", "city_code": "33101", "town_code": "104", "pref_name": "岡山県", "city_name": "岡山市北区", "town_name": "新道", "lat": 34.649821657553169, "lon": 133.92662664050772 }, "geometry": { "type": "Point", "coordinates": [ 133.92662664050772, 34.649821657553169 ] } },
{ "type": "Feature", "properties": { "zone_key": "33101105", "city_code": "33101", "town_code": "105", "pref_name": "岡山県", "city_name": "岡山市北区", "town_name": "新屋敷町一丁目", "lat": 34.654618542541009, "lon": 133.90828176677775 }, "geometry": { "type": "Point", "coordinates": [ 133.908281766777748, 34.654618542541009 ] } },
{ "type": "Feature", "properties": { "zone_key": "33101106", "city_code": "33101", "town_code": "106", "pref_name": "岡山県", "city_name": "岡山市北区", "town_name": "菅野", "lat": 34.750835233427686, "lon": 133.88951578235663 }, "geometry": { "type": "Point", "coordinates": [ 133.889515782356625, 34.750835233427686 ] } },
{ "type": "Feature", "properties": { "zone_key": "33101107", "city_code": "33101", "town_code": "107", "pref_name": "岡山県", "city_name": "岡山市北区", "town_name": "杉谷", "lat": 34.752180180114827, "lon": 133.83088248660357 }, "geometry": { "type": "Point", "coordinates": [ 133.830882486603571, 34.752180180114827 ] } },
{ "type": "Feature", "properties": { "zone_key": "33101108", "city_code": "33101", "town_code": "108", "pref_name": "岡山県", "city_name": "岡山市北区", "town_name": "清輝橋一丁目", "lat": 34.649969307673459, "lon": 133.92471083467331 }, "geometry": { "type": "Point", "coordinates": [ 133.924710834673306, 34.649969307673459 ] } },
{ "type": "Feature", "properties": { "zone_key": "33101109", "city_code": "33101", "town_code": "109", "pref_name": "岡山県", "city_name": "岡山市北区", "town_name": "清輝本町", "lat": 34.652733904115806, "lon": 133.9266577624042 }, "geometry": { "type": "Point", "coordinates": [ 133.926657762404204, 34.652733904115806 ] } },
{ "type": "Feature", "properties": { "zone_key": "33101110", "city_code": "33101", "town_code": "110", "pref_name": "岡山県", "city_name": "岡山市北区", "town_name": "清心町", "lat": 34.673621663839896, "lon": 133.91853774074539 }, "geometry": { "type": "Point", "coordinates": [ 133.918537740745393, 34.673621663839896 ] } },
{ "type": "Feature", "properties": { "zone_key": "33101111", "city_code": "33101", "town_code": "111", "pref_name": "岡山県", "city_name": "岡山市北区", "town_name": "船頭町", "lat": 34.649908609241102, "lon": 133.92910893722848 }, "geometry": { "type": "Point", "coordinates": [ 133.929108937228477, 34.649908609241102 ] } },
{ "type": "Feature", "properties": { "zone_key": "33101112", "city_code": "33101", "town_code": "112", "pref_name": "岡山県", "city_name": "岡山市北区", "town_name": "惣爪", "lat": 34.668233816263466, "lon": 133.83232543155481 }, "geometry": { "type": "Point", "coordinates": [ 133.832325431554807, 34.668233816263466 ] } },
{ "type": "Feature", "properties": { "zone_key": "33101113", "city_code": "33101", "town_code": "113", "pref_name": "岡山県", "city_name": "岡山市北区", "town_name": "大安寺中町", "lat": 34.666000449039437, "lon": 133.8875813276681 }, "geometry": { "type": "Point", "coordinates": [ 133.887581327668101, 34.666000449039437 ] } },
{ "type": "Feature", "properties": { "zone_key": "33101114", "city_code": "33101", "town_code": "114", "pref_name": "岡山県", "city_name": "岡山市北区", "town_name": "大安寺西町", "lat": 34.665448278353516, "lon": 133.88436861353634 }, "geometry": { "type": "Point", "coordinates": [ 133.884368613536338, 34.665448278353516 ] } },
{ "type": "Feature", "properties": { "zone_key": "33101115", "city_code": "33101", "town_code": "115", "pref_name": "岡山県", "city_name": "岡山市北区", "town_name": "大安寺東町", "lat": 34.666768214898831, "lon": 133.89122584210901 }, "geometry": { "type": "Point", "coordinates": [ 133.891225842109009, 34.666768214898831 ] } },
{ "type": "Feature", "properties": { "zone_key": "33101116", "city_code": "33101", "town_code": "116", "pref_name": "岡山県", "city_name": "岡山市北区", "town_name": "大安寺南町一丁目", "lat": 34.660471732526375, "lon": 133.88907562754531 }, "geometry": { "type": "Point", "coordinates": [ 133.88907562754531, 34.660471732526375 ] } },
{ "type": "Feature", "properties": { "zone_key": "33101117", "city_code": "33101", "town_code": "117", "pref_name": "岡山県", "city_name": "岡山市北区", "town_name": "大学町", "lat": 34.652681079526936, "lon": 133.92151195705151 }, "geometry": { "type": "Point", "coordinates": [ 133.921511957051507, 34.652681079526936 ] } },
{ "type": "Feature", "properties": { "zone_key": "33101118", "city_code": "33101", "town_code": "118", "pref_name": "岡山県", "city_name": "岡山市北区", "town_name": "大供一丁目", "lat": 34.655516624744038, "lon": 133.91878560394753 }, "geometry": { "type": "Point", "coordinates": [ 133.918785603947526, 34.655516624744038 ] } },
{ "type": "Feature", "properties": { "zone_key": "33101119", "city_code": "33101", "town_code": "119", "pref_name": "岡山県", "city_name": "岡山市北区", "town_name": "大供表町", "lat": 34.652595357793842, "lon": 133.91469588637867 }, "geometry": { "type": "Point", "coordinates": [ 133.914695886378667, 34.652595357793842 ] } },
{ "type": "Feature", "properties": { "zone_key": "33101120", "city_code": "33101", "town_code": "120", "pref_name": "岡山県", "city_name": "岡山市北区", "town_name": "大供本町", "lat": 34.65306539301708, "lon": 133.91185657107204 }, "geometry": { "type": "Point", "coordinates": [ 133.911856571072036, 34.65306539301708 ] } },
{ "type": "Feature", "properties": { "zone_key": "33101121", "city_code": "33101", "town_code": "121", "pref_name": "岡山県", "city_name": "岡山市北区", "town_name": "高塚", "lat": 34.689857457707021, "lon": 133.80519405724104 }, "geometry": { "type": "Point", "coordinates": [ 133.805194057241039, 34.689857457707021 ] } },
{ "type": "Feature", "properties": { "zone_key": "33101122", "city_code": "33101", "town_code": "122", "pref_name": "岡山県", "city_name": "岡山市北区", "town_name": "高野", "lat": 34.740099151792649, "lon": 133.93016091256965 }, "geometry": { "type": "Point", "coordinates": [ 133.930160912569647, 34.740099151792649 ] } },
{ "type": "Feature", "properties": { "zone_key": "33101123", "city_code": "33101", "town_code": "123", "pref_name": "岡山県", "city_name": "岡山市北区", "town_name": "高松", "lat": 34.699317596252428, "lon": 133.82320889680787 }, "geometry": { "type": "Point", "coordinates": [ 133.82320889680787, 34.699317596252428 ] } },
{ "type": "Feature", "properties": { "zone_key": "33101124", "city_code": "33101", "town_code": "124", "pref_name": "岡山県", "city_name": "岡山市北区", "town_name": "高松稲荷", "lat": 34.708637652148866, "lon": 133.8364319061024 }, "geometry": { "type": "Point", "coordinates": [ 133.836431906102405, 34.708637652148866 ] } },
{ "type": "Feature", "properties": { "zone_key": "33101125", "city_code": "33101", "town_code": "125", "pref_name": "岡山県", "city_name": "岡山市北区", "town_name": "高松田中", "lat": 34.697430414234148, "lon": 133.79334904408427 }, "geometry": { "type": "Point", "coordinates": [ 133.793349044084266, 34.697430414234148 ] } },
{ "type": "Feature", "properties": { "zone_key": "33101126", "city_code": "33101", "town_code": "126", "pref_name": "岡山県", "city_name": "岡山市北区", "town_name": "高松原古才", "lat": 34.683867959807841, "lon": 133.82308728753907 }, "geometry": { "type": "Point", "coordinates": [ 133.823087287539067, 34.683867959807841 ] } },
{ "type": "Feature", "properties": { "zone_key": "33101127", "city_code": "33101", "town_code": "127", "pref_name": "岡山県", "city_name": "岡山市北区", "town_name": "高柳西町", "lat": 34.661080764022209, "lon": 133.89709882160463 }, "geometry": { "type": "Point", "coordinates": [ 133.897098821604629, 34.661080764022209 ] } },
{ "type": "Feature", "properties": { "zone_key": "33101128", "city_code": "33101", "town_code": "128", "pref_name": "岡山県", "city_name": "岡山市北区", "town_name": "高柳東町", "lat": 34.661210671935912, "lon": 133.90296966683974 }, "geometry": { "type": "Point", "coordinates": [ 133.902969666839738, 34.661210671935912 ] } },
{ "type": "Feature", "properties": { "zone_key": "33101129", "city_code": "33101", "town_code": "129", "pref_name": "岡山県", "city_name": "岡山市北区", "town_name": "建部町市場", "lat": 34.848102882725073, "lon": 133.90222015791804 }, "geometry": { "type": "Point", "coordinates": [ 133.902220157918038, 34.848102882725073 ] } },
{ "type": "Feature", "properties": { "zone_key": "33101130", "city_code": "33101", "town_code": "130", "pref_name": "岡山県", "city_name": "岡山市北区", "town_name": "建部町大田", "lat": 34.86255285151033, "lon": 133.93313363718457 }, "geometry": { "type": "Point", "coordinates": [ 133.933133637184568, 34.86255285151033 ] } },
{ "type": "Feature", "properties": { "zone_key": "33101131", "city_code": "33101", "town_code": "131", "pref_name": "岡山県", "city_name": "岡山市北区", "town_name": "建部町小倉", "lat": 34.832258477857224, "lon": 133.93905658607306 }, "geometry": { "type": "Point", "coordinates": [ 133.939056586073065, 34.832258477857224 ] } },
{ "type": "Feature", "properties": { "zone_key": "33101132", "city_code": "33101", "town_code": "132", "pref_name": "岡山県", "city_name": "岡山市北区", "town_name": "建部町川口", "lat": 34.893574225906072, "lon": 133.90183912003465 }, "geometry": { "type": "Point", "coordinates": [ 133.901839120034651, 34.893574225906072 ] } },
{ "type": "Feature", "properties": { "zone_key": "33101133", "city_code": "33101", "town_code": "133", "pref_name": "岡山県", "city_name": "岡山市北区", "town_name": "建部町桜", "lat": 34.84216773841657, "lon": 133.87775324456803 }, "geometry": { "type": "Point", "coordinates": [ 133.877753244568027, 34.84216773841657 ] } },
{ "type": "Feature", "properties": { "zone_key": "33101134", "city_code": "33101", "town_code": "134", "pref_name": "岡山県", "city_name": "岡山市北区", "town_name": "建部町三明寺", "lat": 34.914678566981607, "lon": 133.89473733099388 }, "geometry": { "type": "Point", "coordinates": [ 133.894737330993877, 34.914678566981607 ] } },
{ "type": "Feature", "properties": { "zone_key": "33101135", "city_code": "33101", "town_code": "135", "pref_name": "岡山県", "city_name": "岡山市北区", "town_name": "建部町品田", "lat": 34.88529785476652, "lon": 133.8786389622411 }, "geometry": { "type": "Point", "coordinates": [ 133.878638962241098, 34.88529785476652 ] } },
{ "type": "Feature", "properties": { "zone_key": "33101136", "city_code": "33101", "town_code": "136", "pref_name": "岡山県", "city_name": "岡山市北区", "town_name": "建部町下神目", "lat": 34.886695409058177, "lon": 133.92205475155549 }, "geometry": { "type": "Point", "coordinates": [ 133.922054751555493, 34.886695409058177 ] } },
{ "type": "Feature", "properties": { "zone_key": "33101137", "city_code": "33101", "town_code": "137", "pref_name": "岡山県", "city_name": "岡山市北区", "town_name": "建部町建部上", "lat": 34.860496495980883, "lon": 133.90283674620514 }, "geometry": { "type": "Point", "coordinates": [ 133.902836746205139, 34.860496495980883 ] } },
{ "type": "Feature", "properties": { "zone_key": "33101138", "city_code": "33101", "town_code": "138", "pref_name": "岡山県", "city_name": "岡山市北区", "town_name": "建部町田地子", "lat": 34.864173412725656, "lon": 133.86556296960953 }, "geometry": { "type": "Point", "coordinates": [ 133.865562969609527, 34.864173412725656 ] } },
{ "type": "Feature", "properties": { "zone_key": "33101139", "city_code": "33101", "town_code": "139", "pref_name": "岡山県", "city_name": "岡山市北区", "town_name": "建部町鶴田", "lat": 34.914777766249394, "lon": 133.86374848484834 }, "geometry": { "type": "Point", "coordinates": [ 133.863748484848344, 34.914777766249394 ] } },
{ "type": "Feature", "properties": { "zone_key": "33101140", "city_code": "33101", "town_code": "140", "pref_name": "岡山県", "city_name": "岡山市北区", "town_name": "建部町角石畝", "lat": 34.937387522376341, "lon": 133.88749337120899 }, "geometry": { "type": "Point", "coordinates": [ 133.88749337120899, 34.937387522376341 ] } },
{ "type": "Feature", "properties": { "zone_key": "33101141", "city_code": "33101", "town_code": "141", "pref_name": "岡山県", "city_name": "岡山市北区", "town_name": "建部町角石谷", "lat": 34.927459951691652, "lon": 133.89229811620933 }, "geometry": { "type": "Point", "coordinates": [ 133.892298116209332, 34.927459951691652 ] } },
{ "type": "Feature", "properties": { "zone_key": "33101142", "city_code": "33101", "town_code": "142", "pref_name": "岡山県", "city_name": "岡山市北区", "town_name": "建部町富沢", "lat": 34.856561148571927, "lon": 133.89167681155016 }, "geometry": { "type": "Point", "coordinates": [ 133.891676811550155, 34.856561148571927 ] } },
{ "type": "Feature", "properties": { "zone_key": "33101143", "city_code": "33101", "town_code": "143", "pref_name": "岡山県", "city_name": "岡山市北区", "town_name": "建部町中田", "lat": 34.837252676813584, "lon": 133.89081677253546 }, "geometry": { "type": "Point", "coordinates": [ 133.890816772535459, 34.837252676813584 ] } },
{ "type": "Feature", "properties": { "zone_key": "33101144", "city_code": "33101", "town_code": "144", "pref_name": "岡山県", "city_name": "岡山市北区", "town_name": "建部町西原", "lat": 34.829380201459941, "lon": 133.89590306501515 }, "geometry": { "type": "Point", "coordinates": [ 133.895903065015148, 34.829380201459941 ] } },
{ "type": "Feature", "properties": { "zone_key": "33101145", "city_code": "33101", "town_code": "145", "pref_name": "岡山県", "city_name": "岡山市北区", "town_name": "建部町土師方", "lat": 34.849281192185458, "lon": 133.95000448422687 }, "geometry": { "type": "Point", "coordinates": [ 133.950004484226866, 34.849281192185458 ] } },
{ "type": "Feature", "properties": { "zone_key": "33101146", "city_code": "33101", "town_code": "146", "pref_name": "岡山県", "city_name": "岡山市北区", "town_name": "建部町福渡", "lat": 34.869662396026946, "lon": 133.91166872289133 }, "geometry": { "type": "Point", "coordinates": [ 133.911668722891335, 34.869662396026946 ] } },
{ "type": "Feature", "properties": { "zone_key": "33101147", "city_code": "33101", "town_code": "147", "pref_name": "岡山県", "city_name": "岡山市北区", "town_name": "建部町豊楽寺", "lat": 34.880010641749358, "lon": 133.91063912523379 }, "geometry": { "type": "Point", "coordinates": [ 133.910639125233786, 34.880010641749358 ] } },
{ "type": "Feature", "properties": { "zone_key": "33101148", "city_code": "33101", "town_code": "148", "pref_name": "岡山県", "city_name": "岡山市北区", "town_name": "建部町宮地", "lat": 34.85200424425949, "lon": 133.90705602116313 }, "geometry": { "type": "Point", "coordinates": [ 133.907056021163129, 34.85200424425949 ] } },
{ "type": "Feature", "properties": { "zone_key": "33101149", "city_code": "33101", "town_code": "149", "pref_name": "岡山県", "city_name": "岡山市北区", "town_name": "建部町吉田", "lat": 34.844263475471557, "lon": 133.92082713287826 }, "geometry": { "type": "Point", "coordinates": [ 133.920827132878259, 34.844263475471557 ] } },
{ "type": "Feature", "properties": { "zone_key": "33101150", "city_code": "33101", "town_code": "150", "pref_name": "岡山県", "city_name": "岡山市北区", "town_name": "建部町和田南", "lat": 34.927275370493497, "lon": 133.86592258949946 }, "geometry": { "type": "Point", "coordinates": [ 133.865922589499462, 34.927275370493497 ] } },
{ "type": "Feature", "properties": { "zone_key": "33101151", "city_code": "33101", "town_code": "151", "pref_name": "岡山県", "city_name": "岡山市北区", "town_name": "立田", "lat": 34.687048569046304, "lon": 133.83649276176789 }, "geometry": { "type": "Point", "coordinates": [ 133.836492761767886, 34.687048569046304 ] } },
{ "type": "Feature", "properties": { "zone_key": "33101152", "city_code": "33101", "town_code": "152", "pref_name": "岡山県", "city_name": "岡山市北区", "town_name": "辰巳", "lat": 34.640009512259603, "lon": 133.88828136748356 }, "geometry": { "type": "Point", "coordinates": [ 133.888281367483557, 34.640009512259603 ] } },
{ "type": "Feature", "properties": { "zone_key": "33101153", "city_code": "33101", "town_code": "153", "pref_name": "岡山県", "city_name": "岡山市北区", "town_name": "田中", "lat": 34.641223441877884, "lon": 133.88043557610277 }, "geometry": { "type": "Point", "coordinates": [ 133.880435576102769, 34.641223441877884 ] } },
{ "type": "Feature", "properties": { "zone_key": "33101154", "city_code": "33101", "town_code": "154", "pref_name": "岡山県", "city_name": "岡山市北区", "town_name": "谷万成一丁目", "lat": 34.677428636931062, "lon": 133.89963326467603 }, "geometry": { "type": "Point", "coordinates": [ 133.899633264676027, 34.677428636931062 ] } },
{ "type": "Feature", "properties": { "zone_key": "33101155", "city_code": "33101", "town_code": "155", "pref_name": "岡山県", "city_name": "岡山市北区", "town_name": "田原", "lat": 34.739555228170907, "lon": 133.87865391789285 }, "geometry": { "type": "Point", "coordinates": [ 133.878653917892848, 34.739555228170907 ] } },
{ "type": "Feature", "properties": { "zone_key": "33101156", "city_code": "33101", "town_code": "156", "pref_name": "岡山県", "city_name": "岡山市北区", "town_name": "玉柏", "lat": 34.719058220057107, "lon": 133.96323427787215 }, "geometry": { "type": "Point", "coordinates": [ 133.963234277872147, 34.719058220057107 ] } },
{ "type": "Feature", "properties": { "zone_key": "33101157", "city_code": "33101", "town_code": "157", "pref_name": "岡山県", "city_name": "岡山市北区", "town_name": "田益", "lat": 34.713815169136851, "lon": 133.89563988722162 }, "geometry": { "type": "Point", "coordinates": [ 133.89563988722162, 34.713815169136851 ] } },
{ "type": "Feature", "properties": { "zone_key": "33101158", "city_code": "33101", "town_code": "158", "pref_name": "岡山県", "city_name": "岡山市北区", "town_name": "田町一丁目", "lat": 34.660468774878986, "lon": 133.92457641743323 }, "geometry": { "type": "Point", "coordinates": [ 133.924576417433229, 34.660468774878986 ] } },
{ "type": "Feature", "properties": { "zone_key": "33101159", "city_code": "33101", "town_code": "159", "pref_name": "岡山県", "city_name": "岡山市北区", "town_name": "中央町", "lat": 34.657380984144439, "lon": 133.924649186621 }, "geometry": { "type": "Point", "coordinates": [ 133.924649186620996, 34.657380984144439 ] } },
{ "type": "Feature", "properties": { "zone_key": "33101160", "city_code": "33101", "town_code": "160", "pref_name": "岡山県", "city_name": "岡山市北区", "town_name": "津倉町一丁目", "lat": 34.670415773269461, "lon": 133.90823513399303 }, "geometry": { "type": "Point", "coordinates": [ 133.908235133993031, 34.670415773269461 ] } },
{ "type": "Feature", "properties": { "zone_key": "33101161", "city_code": "33101", "town_code": "161", "pref_name": "岡山県", "city_name": "岡山市北区", "town_name": "津島", "lat": 34.688291491896777, "lon": 133.9148197228441 }, "geometry": { "type": "Point", "coordinates": [ 133.914819722844101, 34.688291491896777 ] } },
{ "type": "Feature", "properties": { "zone_key": "33101162", "city_code": "33101", "town_code": "162", "pref_name": "岡山県", "city_name": "岡山市北区", "town_name": "津島京町一丁目", "lat": 34.682472953938884, "lon": 133.90073833360208 }, "geometry": { "type": "Point", "coordinates": [ 133.900738333602078, 34.682472953938884 ] } },
{ "type": "Feature", "properties": { "zone_key": "33101163", "city_code": "33101", "town_code": "163", "pref_name": "岡山県", "city_name": "岡山市北区", "town_name": "津島桑の木町", "lat": 34.686226828094384, "lon": 133.91275247028409 }, "geometry": { "type": "Point", "coordinates": [ 133.91275247028409, 34.686226828094384 ] } },
{ "type": "Feature", "properties": { "zone_key": "33101164", "city_code": "33101", "town_code": "164", "pref_name": "岡山県", "city_name": "岡山市北区", "town_name": "津島笹が瀬", "lat": 34.687369738124509, "lon": 133.90231867508527 }, "geometry": { "type": "Point", "coordinates": [ 133.902318675085269, 34.687369738124509 ] } },
{ "type": "Feature", "properties": { "zone_key": "33101165", "city_code": "33101", "town_code": "165", "pref_name": "岡山県", "city_name": "岡山市北区", "town_name": "津島中一丁目", "lat": 34.687592398994475, "lon": 133.92070967911485 }, "geometry": { "type": "Point", "coordinates": [ 133.92070967911485, 34.687592398994475 ] } },
{ "type": "Feature", "properties": { "zone_key": "33101166", "city_code": "33101", "town_code": "166", "pref_name": "岡山県", "city_name": "岡山市北区", "town_name": "津島新野一丁目", "lat": 34.682859899539892, "lon": 133.91713031722304 }, "geometry": { "type": "Point", "coordinates": [ 133.917130317223041, 34.682859899539892 ] } },
{ "type": "Feature", "properties": { "zone_key": "33101167", "city_code": "33101", "town_code": "167", "pref_name": "岡山県", "city_name": "岡山市北区", "town_name": "津島西坂一丁目", "lat": 34.685046040742535, "lon": 133.90620748020874 }, "geometry": { "type": "Point", "coordinates": [ 133.906207480208735, 34.685046040742535 ] } },
{ "type": "Feature", "properties": { "zone_key": "33101168", "city_code": "33101", "town_code": "168", "pref_name": "岡山県", "city_name": "岡山市北区", "town_name": "津島東一丁目", "lat": 34.691398396733412, "lon": 133.92679532025716 }, "geometry": { "type": "Point", "coordinates": [ 133.926795320257156, 34.691398396733412 ] } },
{ "type": "Feature", "properties": { "zone_key": "33101169", "city_code": "33101", "town_code": "169", "pref_name": "岡山県", "city_name": "岡山市北区", "town_name": "津島福居一丁目", "lat": 34.690169610775406, "lon": 133.91574767468239 }, "geometry": { "type": "Point", "coordinates": [ 133.915747674682393, 34.690169610775406 ] } },
{ "type": "Feature", "properties": { "zone_key": "33101170", "city_code": "33101", "town_code": "170", "pref_name": "岡山県", "city_name": "岡山市北区", "town_name": "津島本町", "lat": 34.688777184195501, "lon": 133.90898887549795 }, "geometry": { "type": "Point", "coordinates": [ 133.908988875497954, 34.688777184195501 ] } },
{ "type": "Feature", "properties": { "zone_key": "33101171", "city_code": "33101", "town_code": "171", "pref_name": "岡山県", "city_name": "岡山市北区", "town_name": "津島南一丁目", "lat": 34.683167318555142, "lon": 133.91169608005237 }, "geometry": { "type": "Point", "coordinates": [ 133.911696080052366, 34.683167318555142 ] } },
{ "type": "Feature", "properties": { "zone_key": "33101172", "city_code": "33101", "town_code": "172", "pref_name": "岡山県", "city_name": "岡山市北区", "town_name": "津高", "lat": 34.696735807132249, "lon": 133.90812852537132 }, "geometry": { "type": "Point", "coordinates": [ 133.908128525371325, 34.696735807132249 ] } },
{ "type": "Feature", "properties": { "zone_key": "33101173", "city_code": "33101", "town_code": "173", "pref_name": "岡山県", "city_name": "岡山市北区", "town_name": "津高台一丁目", "lat": 34.698524970031194, "lon": 133.91457075508856 }, "geometry": { "type": "Point", "coordinates": [ 133.914570755088562, 34.698524970031194 ] } },
{ "type": "Feature", "properties": { "zone_key": "33101174", "city_code": "33101", "town_code": "174", "pref_name": "岡山県", "city_name": "岡山市北区", "town_name": "津寺", "lat": 34.675575218360969, "lon": 133.81738663785399 }, "geometry": { "type": "Point", "coordinates": [ 133.817386637853986, 34.675575218360969 ] } },
{ "type": "Feature", "properties": { "zone_key": "33101175", "city_code": "33101", "town_code": "175", "pref_name": "岡山県", "city_name": "岡山市北区", "town_name": "天神町", "lat": 34.667294368049156, "lon": 133.92928591181965 }, "geometry": { "type": "Point", "coordinates": [ 133.929285911819647, 34.667294368049156 ] } },
{ "type": "Feature", "properties": { "zone_key": "33101176", "city_code": "33101", "town_code": "176", "pref_name": "岡山県", "city_name": "岡山市北区", "town_name": "問屋町", "lat": 34.643860159037153, "lon": 133.88906320495769 }, "geometry": { "type": "Point", "coordinates": [ 133.889063204957694, 34.643860159037153 ] } },
{ "type": "Feature", "properties": { "zone_key": "33101177", "city_code": "33101", "town_code": "177", "pref_name": "岡山県", "city_name": "岡山市北区", "town_name": "十日市中町", "lat": 34.637651455514046, "lon": 133.92817035982947 }, "geometry": { "type": "Point", "coordinates": [ 133.928170359829465, 34.637651455514046 ] } },
{ "type": "Feature", "properties": { "zone_key": "33101178", "city_code": "33101", "town_code": "178", "pref_name": "岡山県", "city_name": "岡山市北区", "town_name": "十日市西町", "lat": 34.636613209784848, "lon": 133.92578002064664 }, "geometry": { "type": "Point", "coordinates": [ 133.925780020646641, 34.636613209784848 ] } },
{ "type": "Feature", "properties": { "zone_key": "33101179", "city_code": "33101", "town_code": "179", "pref_name": "岡山県", "city_name": "岡山市北区", "town_name": "十日市東町", "lat": 34.63603669599712, "lon": 133.93173655631998 }, "geometry": { "type": "Point", "coordinates": [ 133.931736556319976, 34.63603669599712 ] } },
{ "type": "Feature", "properties": { "zone_key": "33101180", "city_code": "33101", "town_code": "180", "pref_name": "岡山県", "city_name": "岡山市北区", "town_name": "磨屋町", "lat": 34.664076178214302, "lon": 133.92525344777135 }, "geometry": { "type": "Point", "coordinates": [ 133.925253447771354, 34.664076178214302 ] } },
{ "type": "Feature", "properties": { "zone_key": "33101181", "city_code": "33101", "town_code": "181", "pref_name": "岡山県", "city_name": "岡山市北区", "town_name": "富田", "lat": 34.647055595682474, "lon": 133.91860439155636 }, "geometry": { "type": "Point", "coordinates": [ 133.918604391556357, 34.647055595682474 ] } },
{ "type": "Feature", "properties": { "zone_key": "33101182", "city_code": "33101", "town_code": "182", "pref_name": "岡山県", "city_name": "岡山市北区", "town_name": "富原", "lat": 34.698261658357438, "lon": 133.89192041008312 }, "geometry": { "type": "Point", "coordinates": [ 133.891920410083117, 34.698261658357438 ] } },
{ "type": "Feature", "properties": { "zone_key": "33101183", "city_code": "33101", "town_code": "183", "pref_name": "岡山県", "city_name": "岡山市北区", "town_name": "富町一丁目", "lat": 34.665454965049733, "lon": 133.90919914180782 }, "geometry": { "type": "Point", "coordinates": [ 133.909199141807818, 34.665454965049733 ] } },
{ "type": "Feature", "properties": { "zone_key": "33101184", "city_code": "33101", "town_code": "184", "pref_name": "岡山県", "city_name": "岡山市北区", "town_name": "富吉", "lat": 34.73644843510985, "lon": 133.86169942108694 }, "geometry": { "type": "Point", "coordinates": [ 133.861699421086939, 34.73644843510985 ] } },
{ "type": "Feature", "properties": { "zone_key": "33101185", "city_code": "33101", "town_code": "185", "pref_name": "岡山県", "city_name": "岡山市北区", "town_name": "富田町一丁目", "lat": 34.669866791266045, "lon": 133.92453443744677 }, "geometry": { "type": "Point", "coordinates": [ 133.924534437446766, 34.669866791266045 ] } },
{ "type": "Feature", "properties": { "zone_key": "33101186", "city_code": "33101", "town_code": "186", "pref_name": "岡山県", "city_name": "岡山市北区", "town_name": "中井町一丁目", "lat": 34.681737115381686, "lon": 133.93135934742139 }, "geometry": { "type": "Point", "coordinates": [ 133.931359347421392, 34.681737115381686 ] } },
{ "type": "Feature", "properties": { "zone_key": "33101187", "city_code": "33101", "town_code": "187", "pref_name": "岡山県", "city_name": "岡山市北区", "town_name": "中山下一丁目", "lat": 34.66236934267905, "lon": 133.9274551204669 }, "geometry": { "type": "Point", "coordinates": [ 133.927455120466902, 34.66236934267905 ] } },
{ "type": "Feature", "properties": { "zone_key": "33101188", "city_code": "33101", "town_code": "188", "pref_name": "岡山県", "city_name": "岡山市北区", "town_name": "中島田町一丁目", "lat": 34.659053284978462, "lon": 133.91133353596209 }, "geometry": { "type": "Point", "coordinates": [ 133.911333535962086, 34.659053284978462 ] } },
{ "type": "Feature", "properties": { "zone_key": "33101189", "city_code": "33101", "town_code": "189", "pref_name": "岡山県", "city_name": "岡山市北区", "town_name": "中仙道", "lat": 34.646872757546198, "lon": 133.88630548862591 }, "geometry": { "type": "Point", "coordinates": [ 133.886305488625908, 34.646872757546198 ] } },
{ "type": "Feature", "properties": { "zone_key": "33101190", "city_code": "33101", "town_code": "190", "pref_name": "岡山県", "city_name": "岡山市北区", "town_name": "中仙道一丁目", "lat": 34.647251953645245, "lon": 133.88648961446822 }, "geometry": { "type": "Point", "coordinates": [ 133.886489614468218, 34.647251953645245 ] } },
{ "type": "Feature", "properties": { "zone_key": "33101191", "city_code": "33101", "town_code": "191", "pref_name": "岡山県", "city_name": "岡山市北区", "town_name": "中撫川", "lat": 34.650127739422381, "lon": 133.84045042307233 }, "geometry": { "type": "Point", "coordinates": [ 133.840450423072326, 34.650127739422381 ] } },
{ "type": "Feature", "properties": { "zone_key": "33101192", "city_code": "33101", "town_code": "192", "pref_name": "岡山県", "city_name": "岡山市北区", "town_name": "長野", "lat": 34.720751898369038, "lon": 133.84439931904558 }, "geometry": { "type": "Point", "coordinates": [ 133.844399319045579, 34.720751898369038 ] } },
{ "type": "Feature", "properties": { "zone_key": "33101193", "city_code": "33101", "town_code": "193", "pref_name": "岡山県", "city_name": "岡山市北区", "town_name": "中原", "lat": 34.704293971274701, "lon": 133.95113806713408 }, "geometry": { "type": "Point", "coordinates": [ 133.951138067134082, 34.704293971274701 ] } },
{ "type": "Feature", "properties": { "zone_key": "33101194", "city_code": "33101", "town_code": "194", "pref_name": "岡山県", "city_name": "岡山市北区", "town_name": "中牧", "lat": 34.763488333729526, "lon": 133.96057293616087 }, "geometry": { "type": "Point", "coordinates": [ 133.960572936160872, 34.763488333729526 ] } },
{ "type": "Feature", "properties": { "zone_key": "33101195", "city_code": "33101", "town_code": "195", "pref_name": "岡山県", "city_name": "岡山市北区", "town_name": "撫川", "lat": 34.640842089725034, "lon": 133.84258934456531 }, "geometry": { "type": "Point", "coordinates": [ 133.842589344565312, 34.640842089725034 ] } },
{ "type": "Feature", "properties": { "zone_key": "33101196", "city_code": "33101", "town_code": "196", "pref_name": "岡山県", "city_name": "岡山市北区", "town_name": "七日市西町", "lat": 34.64009223883572, "lon": 133.92944804449843 }, "geometry": { "type": "Point", "coordinates": [ 133.929448044498429, 34.64009223883572 ] } },
{ "type": "Feature", "properties": { "zone_key": "33101197", "city_code": "33101", "town_code": "197", "pref_name": "岡山県", "city_name": "岡山市北区", "town_name": "七日市東町", "lat": 34.640321589069799, "lon": 133.93213993688587 }, "geometry": { "type": "Point", "coordinates": [ 133.932139936885875, 34.640321589069799 ] } },
{ "type": "Feature", "properties": { "zone_key": "33101198", "city_code": "33101", "town_code": "198", "pref_name": "岡山県", "city_name": "岡山市北区", "town_name": "楢津", "lat": 34.683641591474348, "lon": 133.88312804058128 }, "geometry": { "type": "Point", "coordinates": [ 133.883128040581283, 34.683641591474348 ] } },
{ "type": "Feature", "properties": { "zone_key": "33101199", "city_code": "33101", "town_code": "199", "pref_name": "岡山県", "city_name": "岡山市北区", "town_name": "西市", "lat": 34.636570703441471, "lon": 133.90046528827125 }, "geometry": { "type": "Point", "coordinates": [ 133.900465288271249, 34.636570703441471 ] } },
{ "type": "Feature", "properties": { "zone_key": "33101200", "city_code": "33101", "town_code": "200", "pref_name": "岡山県", "city_name": "岡山市北区", "town_name": "西辛川", "lat": 34.683295650465375, "lon": 133.85419826465892 }, "geometry": { "type": "Point", "coordinates": [ 133.854198264658919, 34.683295650465375 ] } },
{ "type": "Feature", "properties": { "zone_key": "33101201", "city_code": "33101", "town_code": "201", "pref_name": "岡山県", "city_name": "岡山市北区", "town_name": "錦町", "lat": 34.663208804201915, "lon": 133.92083553963499 }, "geometry": { "type": "Point", "coordinates": [ 133.920835539634993, 34.663208804201915 ] } },
{ "type": "Feature", "properties": { "zone_key": "33101202", "city_code": "33101", "town_code": "202", "pref_name": "岡山県", "city_name": "岡山市北区", "town_name": "西崎一丁目", "lat": 34.664628423903757, "lon": 133.89693562256483 }, "geometry": { "type": "Point", "coordinates": [ 133.896935622564826, 34.664628423903757 ] } },
{ "type": "Feature", "properties": { "zone_key": "33101203", "city_code": "33101", "town_code": "203", "pref_name": "岡山県", "city_name": "岡山市北区", "town_name": "西崎本町", "lat": 34.668631772396012, "lon": 133.89547355998099 }, "geometry": { "type": "Point", "coordinates": [ 133.895473559980985, 34.668631772396012 ] } },
{ "type": "Feature", "properties": { "zone_key": "33101204", "city_code": "33101", "town_code": "204", "pref_name": "岡山県", "city_name": "岡山市北区", "town_name": "西島田町", "lat": 34.659332080014025, "lon": 133.90907239548034 }, "geometry": { "type": "Point", "coordinates": [ 133.909072395480337, 34.659332080014025 ] } },
{ "type": "Feature", "properties": { "zone_key": "33101205", "city_code": "33101", "town_code": "205", "pref_name": "岡山県", "city_name": "岡山市北区", "town_name": "西長瀬", "lat": 34.64778223091421, "lon": 133.8789346551105 }, "geometry": { "type": "Point", "coordinates": [ 133.878934655110498, 34.64778223091421 ] } },
{ "type": "Feature", "properties": { "zone_key": "33101206", "city_code": "33101", "town_code": "206", "pref_name": "岡山県", "city_name": "岡山市北区", "town_name": "西之町", "lat": 34.651428866806654, "lon": 133.90829952137298 }, "geometry": { "type": "Point", "coordinates": [ 133.908299521372982, 34.651428866806654 ] } },
{ "type": "Feature", "properties": { "zone_key": "33101207", "city_code": "33101", "town_code": "207", "pref_name": "岡山県", "city_name": "岡山市北区", "town_name": "西野山町", "lat": 34.667457687972593, "lon": 133.87709483139284 }, "geometry": { "type": "Point", "coordinates": [ 133.877094831392839, 34.667457687972593 ] } },
{ "type": "Feature", "properties": { "zone_key": "33101208", "city_code": "33101", "town_code": "208", "pref_name": "岡山県", "city_name": "岡山市北区", "town_name": "西花尻", "lat": 34.657868989869471, "lon": 133.85565424852382 }, "geometry": { "type": "Point", "coordinates": [ 133.85565424852382, 34.657868989869471 ] } },
{ "type": "Feature", "properties": { "zone_key": "33101209", "city_code": "33101", "town_code": "209", "pref_name": "岡山県", "city_name": "岡山市北区", "town_name": "西古松", "lat": 34.647624098154267, "lon": 133.90758667908099 }, "geometry": { "type": "Point", "coordinates": [ 133.907586679080993, 34.647624098154267 ] } },
{ "type": "Feature", "properties": { "zone_key": "33101210", "city_code": "33101", "town_code": "210", "pref_name": "岡山県", "city_name": "岡山市北区", "town_name": "西古松一丁目", "lat": 34.648100728689862, "lon": 133.90769658757242 }, "geometry": { "type": "Point", "coordinates": [ 133.907696587572417, 34.648100728689862 ] } },
{ "type": "Feature", "properties": { "zone_key": "33101211", "city_code": "33101", "town_code": "211", "pref_name": "岡山県", "city_name": "岡山市北区", "town_name": "西古松西町", "lat": 34.648905030487938, "lon": 133.90357872256467 }, "geometry": { "type": "Point", "coordinates": [ 133.903578722564674, 34.648905030487938 ] } },
{ "type": "Feature", "properties": { "zone_key": "33101212", "city_code": "33101", "town_code": "212", "pref_name": "岡山県", "city_name": "岡山市北区", "town_name": "西山内", "lat": 34.768406805596655, "lon": 133.75923472233495 }, "geometry": { "type": "Point", "coordinates": [ 133.759234722334952, 34.768406805596655 ] } },
{ "type": "Feature", "properties": { "zone_key": "33101213", "city_code": "33101", "town_code": "213", "pref_name": "岡山県", "city_name": "岡山市北区", "town_name": "日応寺", "lat": 34.76632515009031, "lon": 133.86082186892986 }, "geometry": { "type": "Point", "coordinates": [ 133.860821868929861, 34.76632515009031 ] } },
{ "type": "Feature", "properties": { "zone_key": "33101214", "city_code": "33101", "town_code": "214", "pref_name": "岡山県", "city_name": "岡山市北区", "town_name": "庭瀬", "lat": 34.645629178551658, "lon": 133.85078518241355 }, "geometry": { "type": "Point", "coordinates": [ 133.850785182413546, 34.645629178551658 ] } },
{ "type": "Feature", "properties": { "zone_key": "33101215", "city_code": "33101", "town_code": "215", "pref_name": "岡山県", "city_name": "岡山市北区", "town_name": "納所", "lat": 34.658949420042397, "lon": 133.83786885070097 }, "geometry": { "type": "Point", "coordinates": [ 133.837868850700971, 34.658949420042397 ] } },
{ "type": "Feature", "properties": { "zone_key": "33101216", "city_code": "33101", "town_code": "216", "pref_name": "岡山県", "city_name": "岡山市北区", "town_name": "野田一丁目", "lat": 34.654992913149059, "lon": 133.90047808732643 }, "geometry": { "type": "Point", "coordinates": [ 133.900478087326434, 34.654992913149059 ] } },
{ "type": "Feature", "properties": { "zone_key": "33101217", "city_code": "33101", "town_code": "217", "pref_name": "岡山県", "city_name": "岡山市北区", "town_name": "野田屋町一丁目", "lat": 34.667087885471837, "lon": 133.9244123780756 }, "geometry": { "type": "Point", "coordinates": [ 133.924412378075601, 34.667087885471837 ] } },
{ "type": "Feature", "properties": { "zone_key": "33101218", "city_code": "33101", "town_code": "218", "pref_name": "岡山県", "city_name": "岡山市北区", "town_name": "野殿西町", "lat": 34.660687240349787, "lon": 133.87919099214315 }, "geometry": { "type": "Point", "coordinates": [ 133.879190992143151, 34.660687240349787 ] } },
{ "type": "Feature", "properties": { "zone_key": "33101219", "city_code": "33101", "town_code": "219", "pref_name": "岡山県", "city_name": "岡山市北区", "town_name": "野殿東町", "lat": 34.661403794854742, "lon": 133.88257631492709 }, "geometry": { "type": "Point", "coordinates": [ 133.882576314927093, 34.661403794854742 ] } },
{ "type": "Feature", "properties": { "zone_key": "33101220", "city_code": "33101", "town_code": "220", "pref_name": "岡山県", "city_name": "岡山市北区", "town_name": "延友", "lat": 34.63906273345043, "lon": 133.86458068489907 }, "geometry": { "type": "Point", "coordinates": [ 133.864580684899067, 34.63906273345043 ] } },
{ "type": "Feature", "properties": { "zone_key": "33101221", "city_code": "33101", "town_code": "221", "pref_name": "岡山県", "city_name": "岡山市北区", "town_name": "芳賀", "lat": 34.713213307368221, "lon": 133.87205315739257 }, "geometry": { "type": "Point", "coordinates": [ 133.872053157392571, 34.713213307368221 ] } },
{ "type": "Feature", "properties": { "zone_key": "33101222", "city_code": "33101", "town_code": "222", "pref_name": "岡山県", "city_name": "岡山市北区", "town_name": "畑鮎", "lat": 34.72376529441447, "lon": 133.93744474080833 }, "geometry": { "type": "Point", "coordinates": [ 133.937444740808331, 34.72376529441447 ] } },
{ "type": "Feature", "properties": { "zone_key": "33101223", "city_code": "33101", "town_code": "223", "pref_name": "岡山県", "city_name": "岡山市北区", "town_name": "花尻", "lat": 34.658405784062332, "lon": 133.87121779091854 }, "geometry": { "type": "Point", "coordinates": [ 133.871217790918536, 34.658405784062332 ] } },
{ "type": "Feature", "properties": { "zone_key": "33101224", "city_code": "33101", "town_code": "224", "pref_name": "岡山県", "city_name": "岡山市北区", "town_name": "花尻あかね町", "lat": 34.657369995054324, "lon": 133.86817933272391 }, "geometry": { "type": "Point", "coordinates": [ 133.868179332723912, 34.657369995054324 ] } },
{ "type": "Feature", "properties": { "zone_key": "33101225", "city_code": "33101", "town_code": "225", "pref_name": "岡山県", "city_name": "岡山市北区", "town_name": "花尻ききょう町", "lat": 34.658132649528255, "lon": 133.87113956176802 }, "geometry": { "type": "Point", "coordinates": [ 133.871139561768018, 34.658132649528255 ] } },
{ "type": "Feature", "properties": { "zone_key": "33101226", "city_code": "33101", "town_code": "226", "pref_name": "岡山県", "city_name": "岡山市北区", "town_name": "花尻みどり町", "lat": 34.659334287527962, "lon": 133.87478547961751 }, "geometry": { "type": "Point", "coordinates": [ 133.874785479617515, 34.659334287527962 ] } },
{ "type": "Feature", "properties": { "zone_key": "33101227", "city_code": "33101", "town_code": "227", "pref_name": "岡山県", "city_name": "岡山市北区", "town_name": "原", "lat": 34.709948536464488, "lon": 133.94139549826426 }, "geometry": { "type": "Point", "coordinates": [ 133.941395498264257, 34.709948536464488 ] } },
{ "type": "Feature", "properties": { "zone_key": "33101228", "city_code": "33101", "town_code": "228", "pref_name": "岡山県", "city_name": "岡山市北区", "town_name": "蕃山町", "lat": 34.667370777607481, "lon": 133.92714650025528 }, "geometry": { "type": "Point", "coordinates": [ 133.927146500255276, 34.667370777607481 ] } },
{ "type": "Feature", "properties": { "zone_key": "33101229", "city_code": "33101", "town_code": "229", "pref_name": "岡山県", "city_name": "岡山市北区", "town_name": "半田町", "lat": 34.696769514760419, "lon": 133.93278749094259 }, "geometry": { "type": "Point", "coordinates": [ 133.932787490942587, 34.696769514760419 ] } },
{ "type": "Feature", "properties": { "zone_key": "33101230", "city_code": "33101", "town_code": "230", "pref_name": "岡山県", "city_name": "岡山市北区", "town_name": "番町一丁目", "lat": 34.673098785702976, "lon": 133.92834792406626 }, "geometry": { "type": "Point", "coordinates": [ 133.928347924066259, 34.673098785702976 ] } },
{ "type": "Feature", "properties": { "zone_key": "33101231", "city_code": "33101", "town_code": "231", "pref_name": "岡山県", "city_name": "岡山市北区", "town_name": "東島田町一丁目", "lat": 34.659045411070629, "lon": 133.91348425467567 }, "geometry": { "type": "Point", "coordinates": [ 133.913484254675666, 34.659045411070629 ] } },
{ "type": "Feature", "properties": { "zone_key": "33101232", "city_code": "33101", "town_code": "232", "pref_name": "岡山県", "city_name": "岡山市北区", "town_name": "東中央町", "lat": 34.655345376408917, "lon": 133.92680635720592 }, "geometry": { "type": "Point", "coordinates": [ 133.926806357205919, 34.655345376408917 ] } },
{ "type": "Feature", "properties": { "zone_key": "33101233", "city_code": "33101", "town_code": "233", "pref_name": "岡山県", "city_name": "岡山市北区", "town_name": "東野山町", "lat": 34.668000006454847, "lon": 133.8814601757951 }, "geometry": { "type": "Point", "coordinates": [ 133.881460175795098, 34.668000006454847 ] } },
{ "type": "Feature", "properties": { "zone_key": "33101234", "city_code": "33101", "town_code": "234", "pref_name": "岡山県", "city_name": "岡山市北区", "town_name": "東花尻", "lat": 34.654366524500084, "lon": 133.86284681755637 }, "geometry": { "type": "Point", "coordinates": [ 133.862846817556374, 34.654366524500084 ] } },
{ "type": "Feature", "properties": { "zone_key": "33101235", "city_code": "33101", "town_code": "235", "pref_name": "岡山県", "city_name": "岡山市北区", "town_name": "東古松", "lat": 34.646575158836924, "lon": 133.9155806749111 }, "geometry": { "type": "Point", "coordinates": [ 133.915580674911098, 34.646575158836924 ] } },
{ "type": "Feature", "properties": { "zone_key": "33101236", "city_code": "33101", "town_code": "236", "pref_name": "岡山県", "city_name": "岡山市北区", "town_name": "東古松一丁目", "lat": 34.647579134698553, "lon": 133.91601091717041 }, "geometry": { "type": "Point", "coordinates": [ 133.916010917170411, 34.647579134698553 ] } },
{ "type": "Feature", "properties": { "zone_key": "33101237", "city_code": "33101", "town_code": "237", "pref_name": "岡山県", "city_name": "岡山市北区", "town_name": "東古松南町", "lat": 34.64416648164071, "lon": 133.91480443282552 }, "geometry": { "type": "Point", "coordinates": [ 133.91480443282552, 34.64416648164071 ] } },
{ "type": "Feature", "properties": { "zone_key": "33101238", "city_code": "33101", "town_code": "238", "pref_name": "岡山県", "city_name": "岡山市北区", "town_name": "東山内", "lat": 34.780841080781123, "lon": 133.78889184878855 }, "geometry": { "type": "Point", "coordinates": [ 133.788891848788552, 34.780841080781123 ] } },
{ "type": "Feature", "properties": { "zone_key": "33101239", "city_code": "33101", "town_code": "239", "pref_name": "岡山県", "city_name": "岡山市北区", "town_name": "日近", "lat": 34.749450535851444, "lon": 133.81952179665811 }, "geometry": { "type": "Point", "coordinates": [ 133.819521796658108, 34.749450535851444 ] } },
{ "type": "Feature", "properties": { "zone_key": "33101240", "city_code": "33101", "town_code": "240", "pref_name": "岡山県", "city_name": "岡山市北区", "town_name": "日吉町", "lat": 34.654161729891875, "lon": 133.87971363418771 }, "geometry": { "type": "Point", "coordinates": [ 133.879713634187709, 34.654161729891875 ] } },
{ "type": "Feature", "properties": { "zone_key": "33101241", "city_code": "33101", "town_code": "241", "pref_name": "岡山県", "city_name": "岡山市北区", "town_name": "平田", "lat": 34.633657021620472, "lon": 133.886277697579 }, "geometry": { "type": "Point", "coordinates": [ 133.886277697579004, 34.633657021620472 ] } },
{ "type": "Feature", "properties": { "zone_key": "33101242", "city_code": "33101", "town_code": "242", "pref_name": "岡山県", "city_name": "岡山市北区", "town_name": "平野", "lat": 34.645039161590823, "lon": 133.85901880956837 }, "geometry": { "type": "Point", "coordinates": [ 133.859018809568369, 34.645039161590823 ] } },
{ "type": "Feature", "properties": { "zone_key": "33101243", "city_code": "33101", "town_code": "243", "pref_name": "岡山県", "city_name": "岡山市北区", "town_name": "平山", "lat": 34.697560177690612, "lon": 133.83305714669561 }, "geometry": { "type": "Point", "coordinates": [ 133.833057146695609, 34.697560177690612 ] } },
{ "type": "Feature", "properties": { "zone_key": "33101244", "city_code": "33101", "town_code": "244", "pref_name": "岡山県", "city_name": "岡山市北区", "town_name": "広瀬町", "lat": 34.676424948165597, "lon": 133.92853292332552 }, "geometry": { "type": "Point", "coordinates": [ 133.92853292332552, 34.676424948165597 ] } },
{ "type": "Feature", "properties": { "zone_key": "33101245", "city_code": "33101", "town_code": "245", "pref_name": "岡山県", "city_name": "岡山市北区", "town_name": "福崎", "lat": 34.695713061984854, "lon": 133.80267130915792 }, "geometry": { "type": "Point", "coordinates": [ 133.802671309157915, 34.695713061984854 ] } },
{ "type": "Feature", "properties": { "zone_key": "33101246", "city_code": "33101", "town_code": "246", "pref_name": "岡山県", "city_name": "岡山市北区", "town_name": "福谷", "lat": 34.711694690888187, "lon": 133.85458989181376 }, "geometry": { "type": "Point", "coordinates": [ 133.85458989181376, 34.711694690888187 ] } },
{ "type": "Feature", "properties": { "zone_key": "33101247", "city_code": "33101", "town_code": "247", "pref_name": "岡山県", "city_name": "岡山市北区", "town_name": "二日市町", "lat": 34.646540468171061, "lon": 133.92941107610969 }, "geometry": { "type": "Point", "coordinates": [ 133.929411076109687, 34.646540468171061 ] } },
{ "type": "Feature", "properties": { "zone_key": "33101248", "city_code": "33101", "town_code": "248", "pref_name": "岡山県", "city_name": "岡山市北区", "town_name": "舟橋町", "lat": 34.65231831419208, "lon": 133.93029570711019 }, "geometry": { "type": "Point", "coordinates": [ 133.93029570711019, 34.65231831419208 ] } },
{ "type": "Feature", "properties": { "zone_key": "33101249", "city_code": "33101", "town_code": "249", "pref_name": "岡山県", "city_name": "岡山市北区", "town_name": "兵団", "lat": 34.67687504424449, "lon": 133.93113601825968 }, "geometry": { "type": "Point", "coordinates": [ 133.931136018259679, 34.67687504424449 ] } },
{ "type": "Feature", "properties": { "zone_key": "33101250", "city_code": "33101", "town_code": "250", "pref_name": "岡山県", "city_name": "岡山市北区", "town_name": "平和町", "lat": 34.664071579320385, "lon": 133.92347362234688 }, "geometry": { "type": "Point", "coordinates": [ 133.923473622346876, 34.664071579320385 ] } },
{ "type": "Feature", "properties": { "zone_key": "33101251", "city_code": "33101", "town_code": "251", "pref_name": "岡山県", "city_name": "岡山市北区", "town_name": "法界院", "lat": 34.693567802212648, "lon": 133.93216063305863 }, "geometry": { "type": "Point", "coordinates": [ 133.932160633058629, 34.693567802212648 ] } },
{ "type": "Feature", "properties": { "zone_key": "33101252", "city_code": "33101", "town_code": "252", "pref_name": "岡山県", "city_name": "岡山市北区", "town_name": "奉還町一丁目", "lat": 34.669229519581648, "lon": 133.91437837814334 }, "geometry": { "type": "Point", "coordinates": [ 133.91437837814334, 34.669229519581648 ] } },
{ "type": "Feature", "properties": { "zone_key": "33101253", "city_code": "33101", "town_code": "253", "pref_name": "岡山県", "city_name": "岡山市北区", "town_name": "本町", "lat": 34.664710759252245, "lon": 133.92085244582358 }, "geometry": { "type": "Point", "coordinates": [ 133.920852445823584, 34.664710759252245 ] } },
{ "type": "Feature", "properties": { "zone_key": "33101254", "city_code": "33101", "town_code": "254", "pref_name": "岡山県", "city_name": "岡山市北区", "town_name": "間倉", "lat": 34.784028455101321, "lon": 133.77005682644716 }, "geometry": { "type": "Point", "coordinates": [ 133.77005682644716, 34.784028455101321 ] } },
{ "type": "Feature", "properties": { "zone_key": "33101255", "city_code": "33101", "town_code": "255", "pref_name": "岡山県", "city_name": "岡山市北区", "town_name": "松尾", "lat": 34.697013086854433, "lon": 133.86674153050342 }, "geometry": { "type": "Point", "coordinates": [ 133.866741530503418, 34.697013086854433 ] } },
{ "type": "Feature", "properties": { "zone_key": "33101256", "city_code": "33101", "town_code": "256", "pref_name": "岡山県", "city_name": "岡山市北区", "town_name": "真星", "lat": 34.792455403092028, "lon": 133.81167106355318 }, "geometry": { "type": "Point", "coordinates": [ 133.811671063553177, 34.792455403092028 ] } },
{ "type": "Feature", "properties": { "zone_key": "33101257", "city_code": "33101", "town_code": "257", "pref_name": "岡山県", "city_name": "岡山市北区", "town_name": "丸の内一丁目", "lat": 34.664026759944761, "lon": 133.93413144948215 }, "geometry": { "type": "Point", "coordinates": [ 133.934131449482152, 34.664026759944761 ] } },
{ "type": "Feature", "properties": { "zone_key": "33101258", "city_code": "33101", "town_code": "258", "pref_name": "岡山県", "city_name": "岡山市北区", "town_name": "万成西町", "lat": 34.677236823762975, "lon": 133.89056429238957 }, "geometry": { "type": "Point", "coordinates": [ 133.89056429238957, 34.677236823762975 ] } },
{ "type": "Feature", "properties": { "zone_key": "33101259", "city_code": "33101", "town_code": "259", "pref_name": "岡山県", "city_name": "岡山市北区", "town_name": "万成東町", "lat": 34.675112881973945, "lon": 133.8943826845223 }, "geometry": { "type": "Point", "coordinates": [ 133.894382684522299, 34.675112881973945 ] } },
{ "type": "Feature", "properties": { "zone_key": "33101260", "city_code": "33101", "town_code": "260", "pref_name": "岡山県", "city_name": "岡山市北区", "town_name": "三門中町", "lat": 34.669170008726816, "lon": 133.90354151750628 }, "geometry": { "type": "Point", "coordinates": [ 133.903541517506284, 34.669170008726816 ] } },
{ "type": "Feature", "properties": { "zone_key": "33101261", "city_code": "33101", "town_code": "261", "pref_name": "岡山県", "city_name": "岡山市北区", "town_name": "三門西町", "lat": 34.66999312157251, "lon": 133.90119858133087 }, "geometry": { "type": "Point", "coordinates": [ 133.901198581330874, 34.66999312157251 ] } },
{ "type": "Feature", "properties": { "zone_key": "33101262", "city_code": "33101", "town_code": "262", "pref_name": "岡山県", "city_name": "岡山市北区", "town_name": "三門東町", "lat": 34.669761425911858, "lon": 133.90575478905197 }, "geometry": { "type": "Point", "coordinates": [ 133.905754789051969, 34.669761425911858 ] } },
{ "type": "Feature", "properties": { "zone_key": "33101263", "city_code": "33101", "town_code": "263", "pref_name": "岡山県", "city_name": "岡山市北区", "town_name": "御津石上", "lat": 34.840094398068992, "lon": 133.96434927899412 }, "geometry": { "type": "Point", "coordinates": [ 133.964349278994121, 34.840094398068992 ] } },
{ "type": "Feature", "properties": { "zone_key": "33101264", "city_code": "33101", "town_code": "264", "pref_name": "岡山県", "city_name": "岡山市北区", "town_name": "御津伊田", "lat": 34.801522819792666, "lon": 133.96266800439429 }, "geometry": { "type": "Point", "coordinates": [ 133.962668004394288, 34.801522819792666 ] } },
{ "type": "Feature", "properties": { "zone_key": "33101265", "city_code": "33101", "town_code": "265", "pref_name": "岡山県", "city_name": "岡山市北区", "town_name": "御津宇甘", "lat": 34.801687727502845, "lon": 133.87060379287146 }, "geometry": { "type": "Point", "coordinates": [ 133.870603792871464, 34.801687727502845 ] } },
{ "type": "Feature", "properties": { "zone_key": "33101266", "city_code": "33101", "town_code": "266", "pref_name": "岡山県", "city_name": "岡山市北区", "town_name": "御津宇垣", "lat": 34.785331585484158, "lon": 133.91998043413591 }, "geometry": { "type": "Point", "coordinates": [ 133.919980434135908, 34.785331585484158 ] } },
{ "type": "Feature", "properties": { "zone_key": "33101267", "city_code": "33101", "town_code": "267", "pref_name": "岡山県", "city_name": "岡山市北区", "town_name": "御津鹿瀬", "lat": 34.835288260373744, "lon": 133.92397853169189 }, "geometry": { "type": "Point", "coordinates": [ 133.923978531691887, 34.835288260373744 ] } },
{ "type": "Feature", "properties": { "zone_key": "33101268", "city_code": "33101", "town_code": "268", "pref_name": "岡山県", "city_name": "岡山市北区", "town_name": "御津勝尾", "lat": 34.792481688215119, "lon": 133.84882828879165 }, "geometry": { "type": "Point", "coordinates": [ 133.848828288791651, 34.792481688215119 ] } },
{ "type": "Feature", "properties": { "zone_key": "33101269", "city_code": "33101", "town_code": "269", "pref_name": "岡山県", "city_name": "岡山市北区", "town_name": "御津金川", "lat": 34.797092636336103, "lon": 133.9299552039918 }, "geometry": { "type": "Point", "coordinates": [ 133.929955203991796, 34.797092636336103 ] } },
{ "type": "Feature", "properties": { "zone_key": "33101270", "city_code": "33101", "town_code": "270", "pref_name": "岡山県", "city_name": "岡山市北区", "town_name": "御津川高", "lat": 34.783126697035996, "lon": 133.93981944526169 }, "geometry": { "type": "Point", "coordinates": [ 133.939819445261691, 34.783126697035996 ] } },
{ "type": "Feature", "properties": { "zone_key": "33101271", "city_code": "33101", "town_code": "271", "pref_name": "岡山県", "city_name": "岡山市北区", "town_name": "御津北野", "lat": 34.752180596845484, "lon": 133.94001007663144 }, "geometry": { "type": "Point", "coordinates": [ 133.940010076631438, 34.752180596845484 ] } },
{ "type": "Feature", "properties": { "zone_key": "33101272", "city_code": "33101", "town_code": "272", "pref_name": "岡山県", "city_name": "岡山市北区", "town_name": "御津草生", "lat": 34.817463608290289, "lon": 133.92990907505435 }, "geometry": { "type": "Point", "coordinates": [ 133.929909075054354, 34.817463608290289 ] } },
{ "type": "Feature", "properties": { "zone_key": "33101273", "city_code": "33101", "town_code": "273", "pref_name": "岡山県", "city_name": "岡山市北区", "town_name": "御津国ケ原", "lat": 34.776145027727416, "lon": 133.94402834857519 }, "geometry": { "type": "Point", "coordinates": [ 133.944028348575188, 34.776145027727416 ] } },
{ "type": "Feature", "properties": { "zone_key": "33101274", "city_code": "33101", "town_code": "274", "pref_name": "岡山県", "city_name": "岡山市北区", "town_name": "御津河内", "lat": 34.78021724205707, "lon": 133.89206270405367 }, "geometry": { "type": "Point", "coordinates": [ 133.892062704053671, 34.78021724205707 ] } },
{ "type": "Feature", "properties": { "zone_key": "33101275", "city_code": "33101", "town_code": "275", "pref_name": "岡山県", "city_name": "岡山市北区", "town_name": "御津虎倉", "lat": 34.822690892141452, "lon": 133.83252394917645 }, "geometry": { "type": "Point", "coordinates": [ 133.832523949176448, 34.822690892141452 ] } },
{ "type": "Feature", "properties": { "zone_key": "33101276", "city_code": "33101", "town_code": "276", "pref_name": "岡山県", "city_name": "岡山市北区", "town_name": "御津紙工", "lat": 34.819857603195558, "lon": 133.85650630005412 }, "geometry": { "type": "Point", "coordinates": [ 133.856506300054122, 34.819857603195558 ] } },
{ "type": "Feature", "properties": { "zone_key": "33101277", "city_code": "33101", "town_code": "277", "pref_name": "岡山県", "city_name": "岡山市北区", "town_name": "御津下田", "lat": 34.814116057180819, "lon": 133.91454246561679 }, "geometry": { "type": "Point", "coordinates": [ 133.91454246561679, 34.814116057180819 ] } },
{ "type": "Feature", "properties": { "zone_key": "33101278", "city_code": "33101", "town_code": "278", "pref_name": "岡山県", "city_name": "岡山市北区", "town_name": "御津新庄", "lat": 34.82080200999777, "lon": 133.96387989486536 }, "geometry": { "type": "Point", "coordinates": [ 133.963879894865357, 34.82080200999777 ] } },
{ "type": "Feature", "properties": { "zone_key": "33101279", "city_code": "33101", "town_code": "279", "pref_name": "岡山県", "city_name": "岡山市北区", "town_name": "御津高津", "lat": 34.801568912824962, "lon": 133.90177445962419 }, "geometry": { "type": "Point", "coordinates": [ 133.901774459624193, 34.801568912824962 ] } },
{ "type": "Feature", "properties": { "zone_key": "33101280", "city_code": "33101", "town_code": "280", "pref_name": "岡山県", "city_name": "岡山市北区", "town_name": "御津中泉", "lat": 34.816903178407131, "lon": 133.89281719397661 }, "geometry": { "type": "Point", "coordinates": [ 133.892817193976612, 34.816903178407131 ] } },
{ "type": "Feature", "properties": { "zone_key": "33101281", "city_code": "33101", "town_code": "281", "pref_name": "岡山県", "city_name": "岡山市北区", "town_name": "御津中畑", "lat": 34.845009070875001, "lon": 133.98549840859826 }, "geometry": { "type": "Point", "coordinates": [ 133.985498408598261, 34.845009070875001 ] } },
{ "type": "Feature", "properties": { "zone_key": "33101282", "city_code": "33101", "town_code": "282", "pref_name": "岡山県", "city_name": "岡山市北区", "town_name": "御津中牧", "lat": 34.766705742805073, "lon": 133.94876094164488 }, "geometry": { "type": "Point", "coordinates": [ 133.948760941644878, 34.766705742805073 ] } },
{ "type": "Feature", "properties": { "zone_key": "33101283", "city_code": "33101", "town_code": "283", "pref_name": "岡山県", "city_name": "岡山市北区", "town_name": "御津中山", "lat": 34.75301885029095, "lon": 133.92325923615718 }, "geometry": { "type": "Point", "coordinates": [ 133.923259236157179, 34.75301885029095 ] } },
{ "type": "Feature", "properties": { "zone_key": "33101284", "city_code": "33101", "town_code": "284", "pref_name": "岡山県", "city_name": "岡山市北区", "town_name": "御津野々口", "lat": 34.767340507922377, "lon": 133.93049276334099 }, "geometry": { "type": "Point", "coordinates": [ 133.930492763340993, 34.767340507922377 ] } },
{ "type": "Feature", "properties": { "zone_key": "33101285", "city_code": "33101", "town_code": "285", "pref_name": "岡山県", "city_name": "岡山市北区", "town_name": "御津平岡西", "lat": 34.831227909750538, "lon": 133.96997780445787 }, "geometry": { "type": "Point", "coordinates": [ 133.969977804457869, 34.831227909750538 ] } },
{ "type": "Feature", "properties": { "zone_key": "33101286", "city_code": "33101", "town_code": "286", "pref_name": "岡山県", "city_name": "岡山市北区", "town_name": "御津矢知", "lat": 34.829745784761215, "lon": 133.98303933870233 }, "geometry": { "type": "Point", "coordinates": [ 133.983039338702326, 34.829745784761215 ] } },
{ "type": "Feature", "properties": { "zone_key": "33101287", "city_code": "33101", "town_code": "287", "pref_name": "岡山県", "city_name": "岡山市北区", "town_name": "御津矢原", "lat": 34.803066817170986, "lon": 133.94743013658714 }, "geometry": { "type": "Point", "coordinates": [ 133.947430136587144, 34.803066817170986 ] } },
{ "type": "Feature", "properties": { "zone_key": "33101288", "city_code": "33101", "town_code": "288", "pref_name": "岡山県", "city_name": "岡山市北区", "town_name": "御津吉尾", "lat": 34.762117759290724, "lon": 133.91506285970144 }, "geometry": { "type": "Point", "coordinates": [ 133.915062859701436, 34.762117759290724 ] } },
{ "type": "Feature", "properties": { "zone_key": "33101289", "city_code": "33101", "town_code": "289", "pref_name": "岡山県", "city_name": "岡山市北区", "town_name": "御津芳谷", "lat": 34.769908019672087, "lon": 133.96937944126927 }, "geometry": { "type": "Point", "coordinates": [ 133.969379441269268, 34.769908019672087 ] } },
{ "type": "Feature", "properties": { "zone_key": "33101290", "city_code": "33101", "town_code": "290", "pref_name": "岡山県", "city_name": "岡山市北区", "town_name": "三手", "lat": 34.687656221279177, "lon": 133.81193194219168 }, "geometry": { "type": "Point", "coordinates": [ 133.811931942191677, 34.687656221279177 ] } },
{ "type": "Feature", "properties": { "zone_key": "33101291", "city_code": "33101", "town_code": "291", "pref_name": "岡山県", "city_name": "岡山市北区", "town_name": "三和", "lat": 34.74316325638538, "lon": 133.84050850372762 }, "geometry": { "type": "Point", "coordinates": [ 133.840508503727619, 34.74316325638538 ] } },
{ "type": "Feature", "properties": { "zone_key": "33101292", "city_code": "33101", "town_code": "292", "pref_name": "岡山県", "city_name": "岡山市北区", "town_name": "南方一丁目", "lat": 34.675130273442591, "lon": 133.92426855437449 }, "geometry": { "type": "Point", "coordinates": [ 133.924268554374493, 34.675130273442591 ] } },
{ "type": "Feature", "properties": { "zone_key": "33101293", "city_code": "33101", "town_code": "293", "pref_name": "岡山県", "city_name": "岡山市北区", "town_name": "南中央町", "lat": 34.655449946705296, "lon": 133.92451837379616 }, "geometry": { "type": "Point", "coordinates": [ 133.924518373796161, 34.655449946705296 ] } },
{ "type": "Feature", "properties": { "zone_key": "33101294", "city_code": "33101", "town_code": "294", "pref_name": "岡山県", "city_name": "岡山市北区", "town_name": "三野一丁目", "lat": 34.69079486549434, "lon": 133.93745477603503 }, "geometry": { "type": "Point", "coordinates": [ 133.937454776035025, 34.69079486549434 ] } },
{ "type": "Feature", "properties": { "zone_key": "33101295", "city_code": "33101", "town_code": "295", "pref_name": "岡山県", "city_name": "岡山市北区", "town_name": "三野本町", "lat": 34.696238477097481, "lon": 133.93799268231618 }, "geometry": { "type": "Point", "coordinates": [ 133.937992682316178, 34.696238477097481 ] } },
{ "type": "Feature", "properties": { "zone_key": "33101296", "city_code": "33101", "town_code": "296", "pref_name": "岡山県", "city_name": "岡山市北区", "town_name": "牟佐", "lat": 34.73250506703878, "lon": 133.97569934347376 }, "geometry": { "type": "Point", "coordinates": [ 133.975699343473764, 34.73250506703878 ] } },
{ "type": "Feature", "properties": { "zone_key": "33101297", "city_code": "33101", "town_code": "297", "pref_name": "岡山県", "city_name": "岡山市北区", "town_name": "門前", "lat": 34.699560769077216, "lon": 133.808436688867 }, "geometry": { "type": "Point", "coordinates": [ 133.808436688867005, 34.699560769077216 ] } },
{ "type": "Feature", "properties": { "zone_key": "33101298", "city_code": "33101", "town_code": "298", "pref_name": "岡山県", "city_name": "岡山市北区", "town_name": "矢坂西町", "lat": 34.67245254642603, "lon": 133.87758890238322 }, "geometry": { "type": "Point", "coordinates": [ 133.877588902383224, 34.67245254642603 ] } },
{ "type": "Feature", "properties": { "zone_key": "33101299", "city_code": "33101", "town_code": "299", "pref_name": "岡山県", "city_name": "岡山市北区", "town_name": "矢坂東町", "lat": 34.674940114437582, "lon": 133.88721161119452 }, "geometry": { "type": "Point", "coordinates": [ 133.887211611194516, 34.674940114437582 ] } },
{ "type": "Feature", "properties": { "zone_key": "33101300", "city_code": "33101", "town_code": "300", "pref_name": "岡山県", "city_name": "岡山市北区", "town_name": "矢坂本町", "lat": 34.672621235838186, "lon": 133.88291357658755 }, "geometry": { "type": "Point", "coordinates": [ 133.882913576587555, 34.672621235838186 ] } },
{ "type": "Feature", "properties": { "zone_key": "33101301", "city_code": "33101", "town_code": "301", "pref_name": "岡山県", "city_name": "岡山市北区", "town_name": "柳町一丁目", "lat": 34.658266123825129, "lon": 133.92109310384308 }, "geometry": { "type": "Point", "coordinates": [ 133.921093103843077, 34.658266123825129 ] } },
{ "type": "Feature", "properties": { "zone_key": "33101302", "city_code": "33101", "town_code": "302", "pref_name": "岡山県", "city_name": "岡山市北区", "town_name": "山科町", "lat": 34.650606961746725, "lon": 133.92794082893229 }, "geometry": { "type": "Point", "coordinates": [ 133.927940828932293, 34.650606961746725 ] } },
{ "type": "Feature", "properties": { "zone_key": "33101303", "city_code": "33101", "town_code": "303", "pref_name": "岡山県", "city_name": "岡山市北区", "town_name": "大和町一丁目", "lat": 34.681211101839075, "lon": 133.92698147446279 }, "geometry": { "type": "Point", "coordinates": [ 133.926981474462792, 34.681211101839075 ] } },
{ "type": "Feature", "properties": { "zone_key": "33101304", "city_code": "33101", "town_code": "304", "pref_name": "岡山県", "city_name": "岡山市北区", "town_name": "山上", "lat": 34.781946366926348, "lon": 133.84633802421678 }, "geometry": { "type": "Point", "coordinates": [ 133.846338024216777, 34.781946366926348 ] } },
{ "type": "Feature", "properties": { "zone_key": "33101305", "city_code": "33101", "town_code": "305", "pref_name": "岡山県", "city_name": "岡山市北区", "town_name": "弓之町", "lat": 34.670169407724281, "lon": 133.92861673813493 }, "geometry": { "type": "Point", "coordinates": [ 133.928616738134934, 34.670169407724281 ] } },
{ "type": "Feature", "properties": { "zone_key": "33101306", "city_code": "33101", "town_code": "306", "pref_name": "岡山県", "city_name": "岡山市北区", "town_name": "横井上", "lat": 34.711792679708687, "lon": 133.91373027966182 }, "geometry": { "type": "Point", "coordinates": [ 133.91373027966182, 34.711792679708687 ] } },
{ "type": "Feature", "properties": { "zone_key": "33101307", "city_code": "33101", "town_code": "307", "pref_name": "岡山県", "city_name": "岡山市北区", "town_name": "横尾", "lat": 34.727949305338868, "lon": 133.82989962513582 }, "geometry": { "type": "Point", "coordinates": [ 133.829899625135823, 34.727949305338868 ] } },
{ "type": "Feature", "properties": { "zone_key": "33101308", "city_code": "33101", "town_code": "308", "pref_name": "岡山県", "city_name": "岡山市北区", "town_name": "吉", "lat": 34.722418101090923, "lon": 133.84874655811637 }, "geometry": { "type": "Point", "coordinates": [ 133.848746558116375, 34.722418101090923 ] } },
{ "type": "Feature", "properties": { "zone_key": "33101309", "city_code": "33101", "town_code": "309", "pref_name": "岡山県", "city_name": "岡山市北区", "town_name": "吉宗", "lat": 34.735956764631005, "lon": 133.91058244541875 }, "geometry": { "type": "Point", "coordinates": [ 133.910582445418754, 34.735956764631005 ] } },
{ "type": "Feature", "properties": { "zone_key": "33101310", "city_code": "33101", "town_code": "310", "pref_name": "岡山県", "city_name": "岡山市北区", "town_name": "理大町", "lat": 34.696712420159919, "lon": 133.92841611127005 }, "geometry": { "type": "Point", "coordinates": [ 133.928416111270053, 34.696712420159919 ] } },
{ "type": "Feature", "properties": { "zone_key": "33101311", "city_code": "33101", "town_code": "311", "pref_name": "岡山県", "city_name": "岡山市北区", "town_name": "和井元", "lat": 34.705115433718305, "lon": 133.82482583829542 }, "geometry": { "type": "Point", "coordinates": [ 133.824825838295425, 34.705115433718305 ] } },
{ "type": "Feature", "properties": { "zone_key": "33102001", "city_code": "33102", "town_code": "001", "pref_name": "岡山県", "city_name": "岡山市中区", "town_name": "赤坂台", "lat": 34.649225398301439, "lon": 133.93828941668724 }, "geometry": { "type": "Point", "coordinates": [ 133.93828941668724, 34.649225398301439 ] } },
{ "type": "Feature", "properties": { "zone_key": "33102002", "city_code": "33102", "town_code": "002", "pref_name": "岡山県", "city_name": "岡山市中区", "town_name": "赤坂本町", "lat": 34.650655747225656, "lon": 133.93793657338108 }, "geometry": { "type": "Point", "coordinates": [ 133.93793657338108, 34.650655747225656 ] } },
{ "type": "Feature", "properties": { "zone_key": "33102003", "city_code": "33102", "town_code": "003", "pref_name": "岡山県", "city_name": "岡山市中区", "town_name": "赤坂南新町", "lat": 34.646438410200318, "lon": 133.93955779342599 }, "geometry": { "type": "Point", "coordinates": [ 133.93955779342599, 34.646438410200318 ] } },
{ "type": "Feature", "properties": { "zone_key": "33102004", "city_code": "33102", "town_code": "004", "pref_name": "岡山県", "city_name": "岡山市中区", "town_name": "赤田", "lat": 34.680084886190926, "lon": 133.96283550296081 }, "geometry": { "type": "Point", "coordinates": [ 133.962835502960814, 34.680084886190926 ] } },